     4.01           OBSERVATION DATA    M                   RINEX VERSION / TYPE
GnssLogger          samsung 14          20241229 084918 UTC PGM / RUN BY / DATE
Google GnssLogger                                           MARKER NAME
Unknown                                                     MARKER NUMBER
Unknown             Unknown                                 OBSERVER / AGENCY
Unknown             GnssLogger          v3.1.0.3            REC # / TYPE / VERS
Unknown             Unknown                                 ANT # / TYPE
        0.0000        0.0000        0.0000                  ANTENNA: DELTA H/E/N
G    8 C1C L1C D1C S1C C5Q L5Q D5Q S5Q                      SYS / # / OBS TYPES
R    4 C1C L1C D1C S1C                                      SYS / # / OBS TYPES
C    8 C2I L2I D2I S2I C5P L5P D5P S5P                      SYS / # / OBS TYPES
E    8 C1C L1C D1C S1C C5Q L5Q D5Q S5Q                      SYS / # / OBS TYPES
  2024    12    29    08    49   18.0000000     GPS         TIME OF FIRST OBS
 6 R05  1 R06 -4 R07  5 R09 -2 R15  0 R16 -1                GLONASS SLOT / FRQ #
samsung SM-S711B (Android 14) HW Year: 2021 HW Model:       COMMENT
S.LSI,K401,SPOTNAV_4.6.2_7_E21a                             COMMENT
                                                            END OF HEADER
> 2024 12 29 08 49 18.0000000  0 23                      
G13  20928996.85707    280170.78307     -1099.35907        43.20007                                                                
G15  23335493.57427    383808.09927       127.93427        43.80027                                                                
G19  24137540.62806    381757.97706        63.59706        38.80006                                                                
G30  21398431.07427    189945.98727     -4137.35627        43.80027  21398446.06416     13924.75016     -3089.02216        41.20016
G05  22697607.77325    371403.57225     -4642.14625        30.30025                                                                
G20  23380213.91524   2459913.58724     -5835.13624        28.70024                                                                
G22  20351815.43126   3025520.36626     -2851.36126        36.20026                                                                
G14  20230600.94627    267217.98827     -3898.14027        41.80027  20230602.74516    203351.62916     -2913.61616        40.30016
G07  23497211.51924   2688323.27124     -4962.79724        27.90024                                                                
G17  22145867.03524    392020.26424      -761.78324        23.70024                                                                
E24  23901901.65807    186296.15707     -4264.57407        45.60007  23901912.75016    195472.38516     -3184.68016        38.30016
R15  22370853.78007-119622719.47107     -6330.10007        45.60007
R16  19877178.31607-106259951.17407     -4215.95307        44.70007
E05  21806928.27806    438955.26006     -2929.57106        41.00006  21806943.56726    320745.19926     -2187.22126        36.70026
C10  38025571.64507    328140.02007     -2864.22707        42.40007
R07  23071991.29327-123585975.71827       758.49227        41.80027
R06  19760316.51825-105524384.26825     -1873.42825        34.40025
E16  23292635.84426    226350.06326     -2917.98626        38.40026                                                                
R09  21702641.27425-115970497.27825     -1251.90125        30.50025
R05  20666412.84025-110553508.74225     -6663.88325        32.60025
E25  24166431.02824    677480.49524     -1729.53824        26.00024                                                                
C37  26427883.65723    555003.29223      -989.51423        23.20023
E03  25828471.12227    345301.39927      -871.29827        43.50027  25828486.11117  -1820729.27617      -650.84117        41.50017
> 2024 12 29 08 49 19.0000000  0 24                      
G19  24136906.56707    381821.21707        64.30707        45.40007                                                                
G13  20928581.34507    279071.35407     -1098.60107        44.00007                                                                
G30  21398602.25617    185808.21817     -4137.41917        43.20017  21398610.05106     10834.83806     -3089.62906        40.40006
G15  23334857.11517    383937.62517       130.40217        43.70017                                                                
G14  20230713.36926    263318.96326     -3898.74426        41.10026  20230723.56206    200439.11706     -2912.13106        40.10006
G20  23380702.87625   2454077.20325     -5836.23825        30.40025                                                                
G05  22697863.19625    366759.17425     -4643.93725        30.20025                                                                
G22  20351738.08525   3022670.01625     -2849.83625        34.90025                                                                
G07  23497566.47324   2683360.25724     -4962.69424        27.60024                                                                
G17  22145367.88124    391259.33024      -760.79824        23.80024                                                                
E24  23902089.02807    182031.70807     -4264.12307        46.20007  23902099.22126    192292.01726     -3178.05426        37.10026
R16  19877345.60007-106264171.00907     -4215.70407        45.30007
R15  22371417.69007-119629060.22907     -6329.02007        46.00007
E05  21806863.82207    436025.72207     -2929.26907        42.20007  21806877.31316    318557.73916     -2187.20516        36.60016
R07  23071229.82017-123585233.52417       758.08617        41.70017
C10  38025495.19707    325276.14007     -2863.34107        42.20007
R06  19760037.41125-105526217.48025     -1867.94125        34.20025
E16  23292574.98626    223433.71326     -2916.56026        37.30026                                                                
R09  21702225.46225-115971602.86825     -1251.08825        30.40025
R05  20667007.32925-110560014.64125     -6667.56925        31.90025
E25  24166145.32624    675757.14924     -1720.65824        26.00024                                                                
E31  27156456.07724   3117155.90924     -5842.02724        24.00024                                                                
C37  26427441.76323    554016.61123      -984.25323        23.20023
E03  25828010.34117    344429.83817      -870.43117        43.10017  25828029.82706  -1821379.49006      -649.50406        40.90006
> 2024 12 29 08 49 20.0000000  0 24                      
G19  24136292.59207    381880.88607        57.63307        46.30007                                                                
G30  21398784.23007    181666.22507     -4144.09707        45.20007  21398793.82306      7741.96106     -3094.35306        39.60006
G13  20928187.71707    277967.83907     -1105.80707        44.30007                                                                
G15  23334229.64907    384062.10507       121.95707        43.60007                                                                
G14  20230855.77026    259412.67526     -3909.91126        40.60026  20230862.96506    197523.00506     -2917.90706        40.00006
G20  23381202.93025   2448236.33625     -5843.09725        35.00025                                                                
G05  22698135.70825    362108.24325     -4654.18725        30.10025                                                                
G22  20351714.10225   3019813.76625     -2859.19425        33.80025                                                                
G07  23497907.03724   2678392.99124     -4969.38224        27.40024                                                                
G17  22144914.29524    390495.33624      -765.52224        23.80024                                                                
R07  23070486.33508-123584488.26408       751.17708        47.50008
R16  19877530.87207-106268388.55107     -4222.75407        46.70007
E24  23902296.18507    177763.04607     -4270.75907        46.70007  23902307.57726    189105.98426     -3188.85926        36.80026
R15  22371990.89307-119635353.58307     -6336.05907        46.00007
E05  21806819.45307    433092.00607     -2935.79907        43.10007  21806829.64606    316366.98506     -2192.39606        36.20006
C10  38025442.13407    322408.06507     -2870.16707        42.00007
E03  25827561.85107    343554.62307      -877.29007        42.80007  25827590.33106  -1822032.98806      -655.13906        40.40006
R06  19759772.39415-105528028.54715     -1882.20315        34.10015
E16  23292530.31726    220515.36326     -2919.34326        36.20026                                                                
R09  21701836.03225-115972750.48525     -1256.07425        30.30025
R05  20667639.59125-110566625.32425     -6682.00925        31.30025
E25  24165865.91924    674031.29724     -1727.10224        26.00024  24165841.63623   2002331.12223     -1274.84123        18.90023
E31  27156946.53724   3111310.72524     -5845.17224        24.90024                                                                
C37  26427044.53823    553027.86123      -989.78323        23.10023
> 2024 12 29 08 49 21.0000000  0 23                      
G30  21398950.01507    177520.12107     -4148.15107        46.60007  21398959.90806      4645.80306     -3097.79306        39.30006
G19  24135658.53107    381936.50107        53.58807        46.40007                                                                
G13  20927777.00107    276860.10507     -1109.84107        44.60007                                                                
G15  23333588.09307    384182.48307       118.32707        43.50007                                                                
G14  20230977.78616    255503.02916     -3911.31716        40.20016  20230984.38106    194603.62806     -2921.00206        39.90006
G20  23381694.29015   2442390.34415     -5848.54315        35.00015                                                                
G05  22698387.23425    357450.59425     -4660.99825        30.10025                                                                
G22  20351616.96925   3016951.15825     -2865.78125        32.80025                                                                
G17  22144432.52824    389723.44224      -775.84424        23.70024                                                                
R16  19877699.35508-106272614.50308     -4227.20108        47.90008
R07  23069720.36507-123583720.79507       746.95107        47.40007
R15  22372553.90307-119641689.75607     -6339.55507        45.90007
E05  21806752.89907    430153.96207     -2940.20207        43.60007  21806767.28906    314172.90106     -2195.74506        35.80006
C10  38025372.88207    319536.01207     -2874.03607        41.90007
R06  19759514.57305-105529974.75905     -1884.60405        33.90005
E16  23292458.96625    217593.44625     -2923.69625        35.40025                                                                
R09  21701477.18025-115974158.64725     -1265.19625        30.20025
R05  20668281.44625-110573385.15625     -6681.97925        30.80025
E25  24165568.82524    672295.41024     -1740.90124        25.90024                                                                
C37  26426592.15123    552036.46823      -992.71223        23.00023
E03  25827108.86526    342678.51826      -876.54826        41.40026  25827135.24606  -1822689.50106      -658.01906        40.40006
E31  27157450.78824   3105459.90524     -5853.62624        24.90024                                                                
E24  23902488.35208    173490.00808     -4275.21708        47.50008  23902496.74626    185914.62526     -3194.01626        36.60026
> 2024 12 29 08 49 22.0000000  0 23                      
G30  21399136.78607    173371.11707     -4150.44507        47.10007  21399145.48006      1547.35506     -3099.58706        39.10006
G19  24135043.95707    381989.69707        51.98707        46.40007                                                                
G13  20927381.87507    275749.35407     -1112.25707        45.30007                                                                
G15  23332963.92507    384299.96907       116.04107        43.40007                                                                
G14  20231111.19306    251590.69206     -3913.67406        39.80006  20231125.28306    191681.92906     -2922.85506        40.40006
G20  23382208.43405   2436541.83105     -5849.76105        34.90005                                                                
G05  22698660.94425    352789.81125     -4662.34225        30.10025                                                                
G22  20351562.10725   3014080.58325     -2874.55325        31.90025                                                                
G17  22143960.95524    388944.37224      -782.65524        23.60024                                                                
R16  19877887.02508-106276846.56308     -4229.63408        48.90008
R07  23068978.97807-123582987.02407       744.78307        47.20007
R15  22373144.19507-119648073.32807     -6341.94707        45.80007
E05  21806711.52807    427212.83907     -2942.65707        44.00007  21806722.32006    311976.60806     -2197.39206        35.60006
C10  38025325.51507    316660.87407     -2876.67607        41.80007
E03  25826682.86016    341798.76116      -882.33216        40.60016  25826698.14916  -1823348.02816      -659.53316        39.90016
R06  19759256.45105-105531821.71105     -1888.49405        33.80005
E16  23292408.90125    214666.57425     -2929.34225        34.70025                                                                
R09  21701078.45625-115975257.35825     -1265.91225        30.10025
R05  20668927.79925-110580070.79525     -6685.54425        30.50025
E25  24165281.92324    670549.98624     -1750.18924        25.80024                                                                
E31  27157931.35524   3099603.45224     -5859.25724        24.70024                                                                
C37  26426186.23223    551042.87923      -994.68623        22.90023
E24  23902700.90408    169214.00808     -4277.47208        48.10008  23902707.80026    182720.86026     -3194.96126        36.50026
> 2024 12 29 08 49 23.0000000  0 24                      
G30  21399299.57308    169224.44208     -4145.50208        47.60008  21399312.16406     -1549.12706     -3095.49106        39.00006
G13  20926969.66007    274640.59707     -1107.75707        46.20007                                                                
G19  24134406.29807    382045.47707        57.07207        46.30007                                                                
G15  23332317.27307    384419.67007       120.80807        44.00007                                                                
G14  20231237.70626    247680.08726     -3909.73226        39.40026  20231247.29906    188761.62106     -2919.60606        40.50006
G20  23382700.69305   2430695.58805     -5845.09505        35.10005                                                                
G05  22698922.96325    348133.58725     -4653.93425        30.00025                                                                
G22  20351463.17525   3011220.54325     -2854.76725        31.20025                                                                
G17  22143495.07724    388172.11424      -768.85224        23.60024                                                                
R16  19878056.40808-106281077.09508     -4224.70908        49.30008
E24  23902893.07108    164940.15808     -4272.76608        48.10008  23902899.66726    179530.32826     -3188.91026        36.50026
R15  22373706.30507-119654404.91007     -6336.65107        46.10007
R07  23068214.80707-123582229.51207       749.72007        46.90007
E05  21806641.67627    424273.07827     -2939.07427        44.00027  21806659.66406    309781.64706     -2194.29106        35.50006
C10  38025250.86707    313788.29707     -2871.29007        41.70007
E03  25826228.37406    340919.37406      -878.95006        40.50006  25826242.46416  -1824004.91916      -656.07216        38.30016
R06  19758989.03705-105533717.53105     -1883.92605        33.70005
E16  23292343.24625    211742.84625     -2922.15225        34.20025                                                                
R09  21700691.12425-115976514.22925     -1262.36025        30.00025
R05  20669553.46625-110586744.19725     -6679.22225        30.20025
E09  25502189.00224   3614857.95324     -5306.66124        25.80024                                                                
E25  24164977.03524    668809.55024     -1737.93724        25.80024                                                                
E31  27158458.39024   3093747.54024     -5855.63024        24.50024                                                                
C37  26425762.62523    550048.21623      -995.19723        22.90023
> 2024 12 29 08 49 24.0000000  0 23                      
G30  21399480.94808    165080.52408     -4142.53208        47.70008  21399496.83706     -4643.62706     -3093.50406        38.90006
G13  20926572.13607    273533.73207     -1105.91807        46.30007                                                                
G19  24133793.52207    382104.39007        60.47907        46.20007                                                                
G15  23331687.10907    384541.79907       123.34207        44.80007                                                                
G14  20231370.51416    243770.85216     -3908.54216        39.00016  20231386.70206    185843.03106     -2917.72606        40.50006
G20  23383211.53906   2424852.26706     -5841.84906        35.50006                                                                
G22  20351404.41625   3008363.94325     -2854.87325        31.90025                                                                
G05  22699199.07125    343481.85025     -4649.48325        30.00025                                                                
G17  22143036.69524    387407.35924      -761.00124        24.40024                                                                
R16  19878238.98208-106285281.64008     -4222.19108        49.20008
R15  22374287.30307-119660738.78407     -6333.07507        46.90007
E24  23903097.23008    160668.76008     -4270.16408        48.00008  23903106.82326    176341.39426     -3188.12926        36.20026
R07  23067477.31807-123581517.18707       752.71807        46.70007
E05  21806603.00317    421335.60317     -2935.57617        43.90017  21806613.49606    307588.44206     -2192.32306        39.00006
C10  38025199.00307    310918.43907     -2868.49307        41.60007
R06  19758742.90705-105535629.38205     -1882.15105        33.90005
E16  23292297.67825    208819.85025     -2922.62425        33.90025                                                                
R09  21700316.38425-115977740.53725     -1255.35625        29.90025
R05  20670220.20425-110593539.97525     -6677.04825        30.00025
E25  24164704.82324    667076.38024     -1729.53524        25.80024                                                                
E31  27158951.24924   3087897.30524     -5847.38424        24.40024                                                                
C37  26425345.91423    549052.05823      -996.90323        23.30023
E03  25825786.18026    340042.33126      -875.86926        40.30026  25825806.26606  -1824660.58506      -655.05206        38.10006
> 2024 12 29 08 49 25.0000000  0 23                      
G30  21399648.83108    160930.18008     -4153.54708        47.70008  21399663.52106     -7742.28306     -3100.72706        38.90006
G13  20926161.12027    272421.42727     -1115.77227        46.30027                                                                
G19  24133162.75907    382158.94807        52.38007        46.10007                                                                
G15  23331037.15907    384658.04107       114.04807        44.80007                                                                
G14  20231495.82706    239854.69906     -3919.60406        39.00006  20231507.81907    182919.32107     -2926.26307        42.30007
G20  23383703.19906   2419004.01706     -5850.70206        35.90006                                                                
G22  20351324.07225   3005499.39425     -2868.51825        32.90025                                                                
G05  22699490.47025    338825.19825     -4659.10125        29.90025                                                                
G17  22142569.31824    386639.14124      -769.94924        24.70024                                                                
R16  19878410.16318-106289522.11718     -4232.84418        49.10018
R15  22374850.31307-119667074.95807     -6341.65407        47.40007
E24  23903289.09708    156391.05208     -4280.85408        47.80008  23903298.69126    173148.71926     -3194.53826        36.10026
R07  23066711.04807-123580749.71807       742.13007        46.50007
C10  38025125.85307    308042.39207     -2879.13607        41.50007
E16  23292227.82615    205890.89315     -2932.68115        33.80015                                                                
E03  25825339.48926    339157.42326      -888.83926        40.00026  25825351.78116  -1825322.60316      -665.19316        37.60016
R06  19758461.40225-105537449.61425     -1894.20825        33.90025
R09  21699944.34125-115979079.17225     -1269.62525        29.80025
R05  20670821.88825-110600084.11725     -6688.78125        29.90025
E25  24164420.02024    665341.11124     -1736.31424        26.20024                                                                
E31  27159458.49824   3082043.93624     -5854.92424        24.30024                                                                
C37  26424909.41623    548052.39623     -1001.41323        23.40023
E05  21806543.04407    418391.81807     -2947.18407        43.80007  21806551.43906    305390.07506     -2200.94206        38.50006
> 2024 12 29 08 49 26.0000001  0 23                      
G30  21399849.39328    156774.04928     -4159.01528        47.70028  21399861.68406    -10845.72606     -3105.83106        38.90006
G13  20925781.28317    271302.21917     -1122.40717        46.20017                                                                
G15  23330420.48607    384767.01207       105.08607        44.70007                                                                
G14  20231649.62016    235932.77716     -3924.79716        39.20016  20231661.01307    179990.27907     -2931.70307        42.10007
G19  24132555.38007    382208.24107        46.66107        45.20007                                                                
G22  20351274.30615   3002625.28015     -2878.88915        34.90015                                                                
G20  23384208.94926   2413150.14826     -5856.66526        35.80026                                                                
G05  22699785.76525    334157.03425     -4673.90825        29.70025                                                                
G17  22142100.44324    385859.69924      -785.05124        24.70024                                                                
R15  22375446.30108-119673428.71808     -6348.94508        48.00008
R16  19878613.72218-106293776.35218     -4241.17518        48.90018
E24  23903515.14108    152105.77208     -4288.30708        47.60008  23903521.13726    169949.90926     -3201.87126        36.00026
E05  21806504.67107    415441.11007     -2954.16207        43.80007  21806520.26006    303186.37106     -2206.36906        38.00006
E16  23292194.84907    202954.05007     -2940.52907        42.00007                                                                
C10  38025088.97906    305160.08206     -2885.43506        41.40006
E03  25824916.18326    338264.40026      -896.32926        39.70026  25824930.57326  -1825990.90926      -671.44826        37.50026
R07  23065983.45217-123580028.20517       732.23117        45.50017
R06  19758234.45925-105539403.46225     -1902.61725        33.90025
R09  21699574.99725-115980272.63125     -1271.50825        29.80025
R05  20671494.92225-110606851.59925     -6692.97925        29.70025
E25  24164151.70624    663595.32024     -1751.04724        26.70024                                                                
E31  27159970.24424   3076182.67724     -5865.19124        24.20024                                                                
C37  26424500.19924    547042.68824     -1014.72824        23.50024
> 2024 12 29 08 49 27.0000000  0 23                      
G30  21400006.18418    152609.63118     -4168.55518        47.60018  21400019.67506    -13955.02406     -3112.21806        39.00006
G13  20925363.97207    270174.35707     -1132.18607        46.20007                                                                
G15  23329774.43327    384870.06427        99.34227        44.70027                                                                
G14  20231762.34206    232001.69606     -3935.65406        39.60006  20231774.63407    177055.23007     -2938.04607        41.70007
G22  20351188.26606   2999742.38906     -2887.27406        37.40006                                                                
G19  24131915.92207    382249.58807        37.37407        44.00007                                                                
G05  22700039.69025    329482.36225     -4677.91925        29.60025                                                                
G07  23500189.65724   3918797.01124     -4988.75324        25.70024                                                                
G17  22141648.95524    385071.26724      -792.92724        24.60024                                                                
R15  22376000.31718-119679777.88618     -6357.84418        48.20018
R16  19878772.31208-106298012.23808     -4250.32408        48.70008
E24  23903695.01607    147813.42407     -4296.12407        47.40007  23903703.71026    166745.03326     -3207.90326        35.90026
E05  21806435.11927    412481.91927     -2963.42827        43.80027  21806449.20916    300976.78216     -2212.52616        37.60016
E16  23292120.20107    200008.63907     -2949.69007        42.40007                                                                
C10  38025007.13526    302269.99526     -2893.97026        41.30026
R07  23065206.98917-123579268.39317       727.11817        44.30017
E03  25824456.30126    337365.69026      -901.80126        39.50026  25824468.29326  -1826664.80926      -676.69626        37.30026
R06  19757969.14325-105541372.57825     -1909.07925        33.80025
R09  21699191.86225-115981614.32225     -1285.78425        29.80025
R05  20672095.40625-110613453.10325     -6703.82025        29.60025
E25  24163872.00024    661840.78424     -1758.90524        27.00024                                                                
C37  26424064.30124    546029.72724     -1014.58624        24.30024
E31  27160445.41524   3070316.86924     -5868.07124        24.20024                                                                
> 2024 12 29 08 49 28.0000001  0 25                      
G30  21400208.24408    148441.62808     -4169.78508        47.60008  21400219.93606    -17067.19006     -3113.59306        39.30006
G13  20924987.73207    269042.80207     -1133.40007        46.20007                                                                
G15  23329157.76017    384967.97017        95.58317        45.00017                                                                
G14  20231918.53406    228066.81406     -3936.77406        39.90006  20231931.12607    174117.02307     -2939.78107        41.50007
G22  20351143.29706   2996855.02206     -2889.59906        38.40006                                                                
G19  24131329.52827    382287.03127        34.74127        42.80027                                                                
G05  22700334.38625    324799.13825     -4687.48925        29.60025                                                                
G20  23385198.56425   4105730.88325     -5862.52325        31.70025                                                                
G17  22141202.86424    384279.08024      -794.06224        24.80024                                                                
G07  23500540.41424   3913809.39624     -4987.60524        25.60024                                                                
R15  22376594.50608-119686120.94008     -6359.08108        48.10008
R16  19878971.67408-106302242.77208     -4250.20608        48.40008
E24  23903915.66407    143516.95107     -4298.52607        47.30007  23903928.25525    163537.18125     -3209.33325        35.20025
E05  21806407.23817    409518.52117     -2965.49417        43.80017  21806419.53006    298764.00006     -2214.37406        37.20006
E16  23292091.12107    197059.10307     -2951.59107        42.40007                                                                
R07  23064482.99107-123578565.26207       725.76407        43.80007
C10  38024968.16226    299375.59626     -2896.54926        41.30026
E03  25824027.59826    336464.68526      -902.15226        39.30026  25824050.68226  -1827340.14426      -676.05126        37.10026
R06  19757733.80625-105543279.85125     -1916.18325        33.70025
R09  21698830.61225-115982849.80325     -1292.44225        29.90025
R05  20672753.45125-110620137.97925     -6705.85625        29.50025
E25  24163585.39824    660082.81824     -1759.67724        27.00024  24163589.29523   2584197.93823     -1320.77523        22.80023
C37  26423668.87524    545012.46724     -1019.40824        24.60024
E31  27160957.76024   3064446.21524     -5873.06424        24.10024                                                                
C34  25078770.82823   3875725.80623     -1659.70123        21.70023
> 2024 12 29 08 49 28.9999998  0 25                      
G30  21400289.18808    144274.02808     -4167.39108        47.70008  21400300.28006    -20179.37506     -3112.18906        39.40006
G13  20924492.47517    267911.03017     -1131.87817        46.20017                                                                
G15  23328422.96907    385065.80807        97.80407        45.20007                                                                
G14  20231949.11306    224131.61206     -3935.35406        40.10006  20231967.10106    171178.32006     -2938.94406        41.40006
G22  20350981.40906   2993967.10906     -2888.18106        38.80006                                                                
G05  22700506.16726    320114.49526     -4685.34426        40.20026                                                                
G19  24130599.83327    382325.69827        39.52927        41.50027                                                                
G20  23385625.46825   4099864.99325     -5868.85925        30.90025                                                                
G17  22140609.27524    383488.89824      -789.17824        24.90024                                                                
G07  23500787.74324   3908822.75624     -4986.14124        25.40024                                                                
R15  22377075.37328-119692498.39828     -6362.25628        48.00028
R16  19879058.61408-106306513.81708     -4250.16808        48.20008
E24  23904026.88707    139220.29107     -4296.74507        47.10007  23904032.58325    160329.93025     -3206.94425        33.80025
E05  21806257.64207    406554.93607     -2963.67307        43.90007  21806271.13316    296550.78616     -2213.42616        36.90016
E16  23291935.22907    194108.99507     -2950.38807        42.40007                                                                
R09  21698357.54016-115984129.60016     -1290.99616        39.00016
R07  23063630.08127-123577814.64327       725.83427        43.40027
C10  38024813.46916    296481.96416     -2893.24216        41.20016
E03  25823490.07026    335561.62326      -904.08826        39.10026  25823509.55626  -1828013.63126      -672.56126        36.30026
R06  19757367.75925-105545129.85925     -1908.00025        33.60025
E25  24163201.36424    658322.12324     -1762.05724        28.00024  24163210.95724   2582875.32124     -1322.61424        28.30024
R05  20673317.06024-110626960.52924     -6699.70224        29.40024
C37  26423167.92124    543996.97424     -1014.60724        25.00024
E31  27161387.06324   3058577.85224     -5867.20624        24.10024                                                                
C34  25078367.90723   3874068.05023     -1657.75323        21.60023
> 2024 12 29 08 49 30.0000001  0 24                      
G30  21400571.29328    140101.74828     -4174.61228        47.70028  21400579.38716    -23293.43416     -3114.99016        39.30016
G13  20924195.08107    266775.43207     -1137.50907        46.10007                                                                
G15  23327895.03427    385159.81927        92.09727        45.20027                                                                
G05  22700886.00417    315427.03517     -4688.85717        41.90017                                                                
G14  20232190.74606    220193.10006     -3940.15806        40.30006  20232202.43806    168237.48706     -2941.89306        41.30006
G22  20351014.38606   2991076.14806     -2892.47906        39.20006                                                                
G19  24130070.70026    382362.13926        35.32826        40.60026                                                                
G20  23386229.55025   4093993.95525     -5871.02525        30.80025                                                                
G07  23501213.14924   3903832.20324     -4992.50124        25.30024                                                                
G17  22140251.62324    382696.09024      -794.12024        24.90024                                                                
R16  19879338.02108-106310755.05008     -4256.41208        47.90008
E24  23904329.97707    134920.75307     -4300.96807        47.00007  23904338.97025    157118.62925     -3213.31925        33.80025
E05  21806310.10607    403588.43007     -2967.96207        44.00007  21806321.79826    294335.89426     -2215.72726        36.70026
E16  23291983.49507    191156.16007     -2954.19307        42.50007                                                                
R09  21698086.82707-115985431.55007     -1293.73907        42.00007
C10  38024855.44016    293585.66016     -2897.63516        41.40016
R15  22377761.29827-119698912.55827     -6366.90127        47.00027
R07  23062995.12127-123577168.95527       715.03927        43.00027
E25  24163017.89116    656555.29516     -1769.14016        36.10016  24163032.88024   2581555.14924     -1318.94724        27.70024
E03  25823156.10126    334656.37426      -906.34026        38.80026  25823159.69926  -1828694.82026      -685.03926        36.00026
R06  19757220.56125-105547088.28625     -1919.51325        33.50025
R05  20674036.86224-110633558.97424     -6709.96024        29.40024
C37  26422838.45024    542980.26224     -1017.32024        25.50024
E31  27161995.94124   3052704.28424     -5876.15824        24.30024                                                                
> 2024 12 29 08 49 30.9999998  0 25                      
G30  21400651.33728    135924.84228     -4179.21028        47.70028  21400661.23106    -26411.19606     -3119.60706        39.50006
G13  20923695.02707    265634.63307     -1142.64707        46.00007                                                                
G15  23327171.63527    385248.42627        85.90427        45.10027                                                                
G05  22701070.07617    310734.91017     -4694.44917        41.80017                                                                
G14  20232229.11906    216249.90106     -3945.53406        40.50006  20232239.61206    165292.77606     -2946.64306        41.10006
G22  20350853.99706   2988179.59806     -2898.58906        39.70006                                                                
G19  24129352.09726    382393.77826        29.23726        39.90026                                                                
G20  23386621.97925   4088117.76525     -5878.75425        30.80025                                                                
G07  23501452.38324   3898834.64424     -5001.05124        25.50024                                                                
G17  22139669.12624    381898.39924      -800.13224        25.00024                                                                
E24  23904431.60607    130616.37607     -4306.78707        46.80007  23904442.99825    153903.12525     -3217.59925        33.30025
E05  21806163.80707    400616.96107     -2973.94507        44.30007  21806174.00026    292119.52026     -2217.11026        36.40026
R16  19879421.36327-106315006.99127     -4257.58827        46.40027
E16  23291836.29707    188198.27807     -2960.39807        43.10007                                                                
R09  21697641.03607-115986855.75907     -1299.76107        42.00007
C10  38024700.14827    290684.15427     -2904.10127        41.80027
R15  22378235.87027-119705256.37727     -6374.70527        46.10027
E25  24162647.04806    654783.65406     -1774.29506        39.70006  24162657.54024   2580233.07524     -1323.02224        27.90024
E03  25822615.27526    333747.25526      -911.05226        38.70026  25822622.17126  -1829375.68726      -680.70526        35.50026
R06  19756854.81425-105548939.82225     -1925.24525        33.30025
R07  23062174.88927-123576592.20527       716.07827        41.50027
R05  20674592.97725-110640340.98725     -6712.04225        29.50025
C37  26422293.42724    541957.04424     -1026.46924        25.60024
E31  27162393.16624   3046818.82924     -5891.38824        24.50024                                                                
C34  25077799.20123   3870750.99623     -1668.82223        20.90023
> 2024 12 29 08 49 31.9999999  0 26                      
G30  21400855.79628    131743.79628     -4183.10728        47.60028  21400863.89006    -29532.40006     -3122.91806        40.50006
G13  20923321.78617    264489.54617     -1148.22817        45.90017                                                                
G15  23326556.16127    385331.67227        80.56627        45.00027                                                                
G05  22701383.35917    306038.02017     -4699.26117        41.70017                                                                
G14  20232387.41006    212301.94406     -3950.32806        40.80006  20232398.80206    162344.47406     -2950.09106        41.00006
G22  20350812.02606   2985278.60306     -2903.46106        39.80006                                                                
G19  24128765.10426    382419.99926        23.51326        39.40026                                                                
G20  23387155.90925   4082239.20425     -5879.73425        31.80025                                                                
G07  23501830.42124   3893829.64524     -5008.70924        25.90024                                                                
G17  22139238.62424    381095.03724      -806.19424        25.30024                                                                
E24  23904658.54907    126306.94807     -4311.94407        46.70007  23904671.74025    150684.46625     -3220.23025        33.60025
E05  21806130.83007    397640.41207     -2979.08207        44.40007  21806148.51826    289896.95626     -2225.65426        36.20026
E16  23291806.31807    185235.37307     -2965.41007        43.10007                                                                
R16  19879629.11917-106319282.62317     -4263.91317        45.80017
R09  21697269.29307-115988036.22907     -1303.93607        42.00007
C10  38024664.47317    287777.38517     -2909.39417        41.80017
E25  24162391.32506    653006.93306     -1779.25506        41.10006  24162403.61615   2578906.28915     -1329.13815        29.80015
R15  22378834.25527-119711620.83727     -6374.21427        45.30027
E03  25822197.36526    332832.55226      -917.49326        38.50026  25822202.46125  -1830055.33525      -679.03725        34.60025
E09  25505657.60125   4491142.57425     -5338.22025        32.10025                                                                
R07  23061436.80026-123575814.77826       709.36726        40.00026
R06  19756640.76225-105550960.09525     -1930.16925        33.10025
R05  20675251.02225-110647026.62825     -6718.92625        30.10025
C37  26421916.58824    540924.64224     -1036.99324        26.30024
E31  27162931.89424   3040928.57424     -5892.64124        24.70024                                                                
C34  25077502.10723   3869079.76123     -1671.23123        21.00023
> 2024 12 29 08 49 32.9999999  0 26                      
G30  21401025.47828    127562.46528     -4181.46528        47.50028  21401036.87006    -32654.34306     -3122.30606        40.40006
G13  20922921.56307    263343.51607     -1146.25007        45.70007                                                                
G15  23325908.01027    385417.28927        86.80327        44.90027                                                                
G05  22701653.77217    301339.93817     -4698.66917        41.60017                                                                
G14  20232516.92006    208352.58806     -3950.04706        41.00006  20232526.51306    159395.21306     -2949.73506        40.80006
G22  20350740.97506   2982376.11706     -2903.22606        40.00006                                                                
G19  24128127.74526    382445.08326        24.51526        38.90026                                                                
G20  23387647.26925   4076355.45125     -5886.33725        32.40025                                                                
G07  23502160.19324   3888823.31124     -5006.99224        26.20024                                                                
G17  22138757.15724    380290.15724      -805.63924        25.70024                                                                
E24  23904857.61127    121995.76527     -4312.05227        46.50027  23904869.00426    147465.61726     -3218.93826        36.80026
E05  21806083.46327    394662.92327     -2977.95227        44.30027  21806091.55726    287674.56326     -2222.30426        36.50026
R16  19879802.69907-106323535.32107     -4264.14007        45.40007
E16  23291744.26107    182271.48907     -2964.36807        43.00007                                                                
E25  24162111.31807    651229.48907     -1777.80307        41.80007  24162120.01205   2577578.93505     -1327.63605        31.00005
R09  21696895.75217-115989365.68617     -1305.98217        41.90017
C10  38024599.41827    284869.94327     -2907.77427        41.70027                                                                
R15  22379403.56127-119717991.41527     -6373.13927        44.50027
E03  25821737.48326    331918.83426      -913.22426        38.30026  25821754.57125  -1830737.27325      -683.08125        33.90025
E09  25506049.72915   4485808.13415     -5331.31815        33.60015                                                                
C37  26421485.18625    539889.13325     -1037.05925        32.50025  26421502.87423   2634991.17923      -783.74323        22.30023
R06  19756361.65515-105552794.07015     -1928.17515        33.00015
R07  23060694.51326-123575173.68826       705.67626        38.80026
R05  20675875.78925-110653694.67725     -6719.37525        30.60025
E31  27163424.45324   3035038.99624     -5889.22824        24.90024                                                                
C34  25077218.20323   3867403.29123     -1679.08523        21.70023                                                                
> 2024 12 29 08 49 33.9999999  0 26                      
G30  21401195.16117    123383.84417     -4177.25817        47.30017  21401210.15106    -35775.12406     -3120.19506        40.30006
G13  20922514.14507    262199.22307     -1143.42207        45.60007                                                                
G05  22701923.88507    296643.57707     -4695.49107        41.80007                                                                
G14  20232645.83106    204404.34006     -3947.68706        41.40006  20232655.72416    156446.99616     -2947.68916        40.70016
G22  20350670.82406   2979474.68606     -2900.89706        40.20006                                                                
G15  23325274.84827    385503.77527        86.92027        44.00027                                                                
G19  24127508.37416    382472.73616        28.93716        38.50016                                                                
G20  23388153.01925   4070476.54125     -5876.47725        32.40025                                                                
G07  23502495.66124   3883822.48024     -4998.06924        26.20024                                                                
G17  22138284.98424    379487.15024      -802.06824        26.10024                                                                
E24  23905056.67417    117687.86117     -4307.00717        46.30017  23905066.56726    144249.19026     -3215.20926        36.40026
E05  21806025.00317    391686.63817     -2975.67717        44.30017  21806035.49616    285452.16716     -2222.39216        36.30016
R16  19879974.78007-106327781.90707     -4260.71807        45.10007
E16  23291688.20007    179308.95507     -2961.85407        43.00007                                                                
E25  24161820.82027    649454.92127     -1773.87527        41.80027  24161833.71106   2576252.57906     -1325.85406        36.20006
R09  21696508.42007-115990622.56207     -1301.37807        41.90007
C10  38024532.86417    281964.95917     -2903.74917        41.60017                                                                
R15  22379977.66427-119724385.69327     -6371.87127        43.80027
E03  25821282.99816    331006.98216      -910.91716        38.30016  25821303.08425  -1831417.02725      -678.66125        33.90025
E09  25506449.95206   4480475.46406     -5332.66006        36.20006  25506463.14325   3353802.14425     -3984.05525        29.90025
R05  20676514.34725-110660436.91725     -6716.36225        34.60025
C37  26421066.07725    538857.76625     -1029.29625        33.50025  26421078.66824   2634200.26824      -794.49224        24.50024
R06  19756094.54025-105554691.41725     -1928.02825        32.90025
R07  23059927.64426-123574402.38926       711.81126        37.80026
E31  27163929.30324   3029154.45524     -5882.01124        25.00024                                                                
C34  25076911.81523   3865727.00623     -1676.18923        22.50023                                                                
> 2024 12 29 08 49 34.9999999  0 26                      
G14  20232793.32907    200451.70607     -3954.81907        46.00007  20232803.52226    153495.73026     -2952.78626        39.60026
G30  21401393.62307    119200.57507     -4185.58307        47.10007  21401401.11806    -38899.41606     -3126.04006        40.10006
G05  22702219.48027    291941.38927     -4705.09227        42.00027                                                                
G22  20350620.15906   2976569.18406     -2907.53206        40.50006                                                                
G13  20922129.21107    261050.65507     -1150.70307        45.10007                                                                
G15  23324650.68017    385584.60817        78.00617        42.80017                                                                
G19  24126899.49506    382496.41106        21.68606        38.10006                                                                
G20  23388668.06215   4064594.72115     -5883.26215        32.80015                                                                
G17  22137829.00024    378677.84324      -812.45524        26.50024                                                                
G07  23502827.23124   3878817.71824     -5006.71724        26.30024                                                                
E24  23905272.22407    113374.36107     -4316.03907        46.00007  23905282.41726    141029.08826     -3221.93326        38.80026
E05  21805986.03007    388706.40307     -2982.20407        44.20007  21805998.32106    283226.63606     -2227.09506        36.20006
R16  19880170.84407-106332056.77307     -4268.37407        44.90007
E16  23291649.82607    176342.36507     -2968.61107        43.00007                                                                
E25  24161554.00417    647674.58617     -1782.21617        42.10017  24161568.09406   2574923.41706     -1330.56206        35.60006
R09  21696156.16417-115991968.83117     -1309.16017        41.80017
C10  38024489.09406    279055.08806     -2912.30806        41.40006                                                                
R15  22380569.45427-119730778.44627     -6377.26427        43.00027
E03  25820856.99306    330091.12806      -917.85406        38.20006  25820870.78325  -1832099.88625      -684.41025        33.70025
E09  25506857.07006   4475137.74206     -5340.23806        37.20006  25506873.85925   3349815.64225     -3987.71325        29.80025
R05  20677167.29526-110667156.97426     -6724.12526        36.40026
C37  26420653.56225    537823.34825     -1035.94125        33.40025  26420673.64824   2633415.73324      -781.34524        29.00024
R06  19755863.10115-105556681.14815     -1933.51315        32.80015
R07  23059168.27026-123573572.11126       706.51826        36.90026
E31  27164436.25224   3023270.84024     -5883.14124        25.00024                                                                
C34  25076629.41123   3864047.47823     -1681.14623        23.00023                                                                
> 2024 12 29 08 49 36.0000000  0 26                      
G14  20232937.52908    196494.98308     -3958.75908        48.20008  20232945.02426    150542.78326     -2953.78026        39.00026
G30  21401574.09907    115013.53007     -4188.92407        46.90007  21401586.69006    -42026.40106     -3128.32606        40.00006
G05  22702511.47827    287236.87327     -4705.67127        41.90027                                                                
G22  20350562.29906   2973659.32806     -2912.02706        40.80006                                                                
G13  20921727.48917    259899.23817     -1152.83917        44.30017                                                                
G15  23324026.81227    385663.07127        77.27827        41.90027                                                                
G19  24126278.92506    382516.49406        18.28706        37.80006                                                                
G17  22137387.10624    377863.07324      -817.50124        27.70024                                                                
G20  23389170.81416   4058709.21916     -5887.33016        36.10016                                                                
G07  23503157.90224   3873807.03224     -5013.63824        26.30024                                                                
E24  23905488.67507    109057.07007     -4319.17707        45.80007  23905493.17126    137805.18626     -3225.79626        39.00026
E05  21805937.16407    385722.08507     -2986.35407        44.10007  21805954.55215    280997.98915     -2230.20015        35.40015
E16  23291601.56007    173371.66107     -2972.75507        43.00007                                                                
E25  24161288.38807    645890.49807     -1786.20907        42.70007  24161297.68205   2573591.26105     -1333.65005        35.20005
R16  19880361.51217-106336339.28717     -4271.54917        44.60017
R09  21695787.71917-115993264.67817     -1312.44517        41.70017
C10  38024440.52806    276141.49706     -2915.44506        41.30006                                                                
R15  22381160.64517-119737202.55117     -6387.54917        42.30017
E03  25820406.40506    329171.96806      -920.81106        38.30006  25820437.58325  -1832786.35325      -688.27025        33.70025
E09  25507266.88706   4469795.49106     -5344.50306        37.50006  25507279.77825   3345825.23225     -3992.35525        30.70025
R05  20677803.75426-110673825.79226     -6737.91526        36.30026
C37  26420245.54525    536784.03025     -1041.76525        33.40025  26420259.63516   2632630.87516      -785.01816        38.90016
R06  19755622.66705-105558657.90305     -1938.15905        32.80005
R07  23058446.37026-123572979.27826       693.05826        36.10026
C34  25076349.70425   3862363.97025     -1685.49525        31.10025                                                                
E31  27164961.18924   3017381.49024     -5892.20324        24.90024                                                                
> 2024 12 29 08 49 37.0000000  0 26                      
G14  20233066.44008    192530.14708     -3968.13508        48.20008  20233077.53226    147582.39026     -2964.11026        38.90026
G30  21401753.07527    110818.68727     -4198.73427        46.70027  21401762.06806    -45158.81906     -3135.12806        40.10006
G05  22702790.58527    282523.24627     -4718.17227        41.80027                                                                
G22  20350496.94406   2970742.21106     -2921.49106        41.10006                                                                
G13  20921327.26727    258739.59927     -1163.74827        43.70027                                                                
G15  23323399.64626    385730.18526        61.44026        41.10026                                                                
G19  24125655.95606    382529.73206         9.81506        37.60006                                                                
G20  23389666.97026   4052816.85426     -5895.78426        36.10026                                                                
G17  22136914.33315    377043.86815      -821.42015        35.20015                                                                
G07  23503511.35824   3868787.73524     -5023.59224        26.30024                                                                
E24  23905682.04107    104732.55607     -4328.11707        45.60007  23905692.23416    134575.88016     -3232.00116        38.60016
E05  21805890.69607    382730.33507     -2995.46007        44.00007  21805902.08805    278763.91205     -2236.78605        35.30005
E25  24161008.08207    644098.93707     -1795.29507        43.10007  24161014.97705   2572253.42405     -1340.67505        35.10005
E16  23291545.49907    170393.44507     -2981.96507        43.00007                                                                
R16  19880535.99107-106340598.10607     -4281.34107        44.30007
R09  21695424.97007-115994652.20807     -1322.06907        41.60007
C10  38024380.86906    273220.64406     -2924.47806        41.10006                                                                
R15  22381726.65327-119743554.77927     -6395.59427        41.70027
E03  25819967.50826    328244.17326      -932.11126        38.30026  25819989.99325  -1833477.93825      -694.14125        32.80025
E09  25507664.41106   4464446.05906     -5353.01206        37.70006  25507675.50425   3341830.68025     -3996.61525        31.30025
R05  20678445.01026-110680581.79926     -6741.66426        36.10026
C34  25076047.81325   3860674.95325     -1691.76725        32.60025                                                                
R06  19755355.55205-105560555.25105     -1948.12905        33.10005
R07  23057691.19325-123572268.48825       692.06825        35.40025
E31  27165452.24924   3011482.98424     -5903.07324        24.90024                                                                
C37  26419819.24025    535737.10025     -1050.73325        33.30025  26419839.32606   2631840.32106      -793.40106        37.70006
> 2024 12 29 08 49 38.0000000  0 26                      
G14  20233197.14908    188561.70608     -3970.48508        48.20008  20233208.24126    144621.99526     -2960.39026        37.90026
G30  21401928.15317    106620.36917     -4200.04717        46.50017  21401938.34606    -48294.09606     -3136.70106        40.20006
G05  22703058.60017    277804.98717     -4720.56617        41.80017                                                                
G22  20350428.89106   2967820.25406     -2924.12106        41.10006                                                                
G13  20920932.44027    257575.68327     -1166.05327        43.10027                                                                
G19  24125025.49206    382539.41406         7.90406        37.50006                                                                
G15  23322768.28326    385794.04826        62.23826        40.40026                                                                
G20  23390175.11926   4046921.49126     -5896.85126        36.10026                                                                
G17  22136442.46025    376217.81925      -829.46825        35.10025                                                                
G07  23503840.23024   3863762.47324     -5028.23424        26.20024                                                                
E24  23905881.70207    100403.89107     -4330.73207        45.40007  23905893.99406    131343.37306     -3234.10106        38.10006
E25  24160720.58107    642303.09807     -1797.97307        43.40007  24160735.27115   2570912.25315     -1342.83515        34.90015
E05  21805837.03307    379734.30507     -2998.16407        43.90007  21805848.42525    276527.73925     -2237.21825        34.80025
E16  23291492.13607    167411.12907     -2984.36107        43.00007                                                                
R16  19880712.56907-106344868.38507     -4282.83107        44.00007
R09  21695037.33807-115995908.31807     -1324.10107        41.60007
C10  38024315.21406    270296.29706     -2926.08906        40.90006                                                                
E03  25819533.40916    327314.14316      -931.14516        38.40016  25819550.19725  -1834175.95225      -701.22825        32.80025
R15  22382297.45816-119749933.76716     -6395.35416        41.20016
E09  25508059.23806   4459092.81306     -5355.14306        37.90006  25508070.93025   3337833.45025     -3998.56125        31.30025
R05  20679088.96516-110687355.39816     -6742.06916        36.10016
C34  25075746.82215   3858981.96115     -1694.97615        35.30015                                                                
R06  19755094.13305-105562484.66505     -1951.23605        33.50005
C37  26419407.32525    534685.47225     -1053.97625        33.20025  26419418.41706   2631046.54206      -795.38906        37.00006
R07  23056956.10125-123571669.52425       688.41525        34.80025
E31  27165953.50224   3005578.37024     -5907.65724        24.90024                                                                
> 2024 12 29 08 49 39.0000001  0 26                      
G14  20233356.93808    184592.41408     -3969.71008        48.10008  20233371.62816    141657.70016     -2966.23816        38.00016
G30  21402134.71007    102421.10207     -4199.73107        46.30007  21402144.60406    -51429.75206     -3135.83806        40.20006
G05  22703356.59307    273086.26607     -4718.94107        41.80007                                                                
G22  20350390.81806   2964897.45606     -2923.21206        41.30006                                                                
G13  20920559.49817    256411.03517     -1165.01017        42.60017                                                                
G19  24124426.50706    382549.06806         9.64106        37.40006                                                                
G17  22136010.15926    375391.54626      -826.38426        35.70026                                                                
G20  23390689.86226   4041023.65026     -5899.06726        36.00026                                                                
G15  23322165.10126    385857.69626        63.54026        39.70026                                                                
G07  23504177.49724   3858738.33624     -5023.56324        26.20024                                                                
E24  23906114.94107     96074.61607     -4329.57207        45.20007  23906125.13406    128110.36706     -3233.24806        37.70006
E25  24160472.65307    640506.74307     -1796.61007        43.40007  24160484.94425   2569572.84525     -1338.52525        34.70025
E05  21805815.14807    376737.74907     -2996.81307        43.70007  21805826.54025    274289.95425     -2238.58625        34.70025
E16  23291467.25307    164428.07607     -2983.41407        43.00007                                                                
R16  19880929.01907-106349191.40707     -4281.91207        43.70007
R09  21694686.58107-115997201.10607     -1323.82407        41.50007
C10  38024281.63806    267371.32706     -2925.27406        40.70006                                                                
E03  25819109.50226    326383.38926      -931.86326        38.70026  25819139.78125  -1834877.83825      -703.82125        32.80025
E09  25508478.34806   4453738.88106     -5354.26406        38.00006  25508496.63525   3333835.20825     -3998.73825        31.30025
R05  20679765.59626-110694140.47126     -6738.42226        37.10026
C34  25075482.10506   3857288.11306     -1694.27206        35.70006                                                                
R06  19754877.08305-105564489.66905     -1950.46905        33.80005
R07  23056217.41325-123570888.26825       693.31225        34.30025
R15  22382923.12526-119756443.50126     -6394.76526        40.30026
E31  27166477.23924   2999671.95924     -5907.29724        24.90024                                                                
C37  26419031.08525    533633.27225     -1052.48425        33.20025  26419027.48806   2630252.56906      -794.06906        36.60006
> 2024 12 29 08 49 39.9999998  0 26                      
G14  20233402.20708    180615.56108     -3980.62608        48.10008  20233415.99806    138687.96706     -2972.44706        38.00006
G30  21402221.95007     98214.79707     -4209.81707        46.10007  21402232.74306    -54570.91406     -3143.90906        40.10006
G05  22703539.76607    268359.79807     -4730.33307        42.40007                                                                
G22  20350232.82706   2961967.14706     -2934.05806        41.40006                                                                
G13  20920068.73807    255239.14807     -1175.50507        42.30007                                                                
G19  24123724.09326    382550.68826        -2.39826        37.30026                                                                
G17  22135461.23926    374562.29726      -830.73526        36.00026                                                                
G20  23391102.07726   4035120.35126     -5906.01626        35.90026                                                                
G15  23321433.30826    385914.04726        52.70326        39.00026                                                                
G07  23504440.41424   3853714.20324     -5024.12124        26.10024                                                                
E24  23906226.46407     91737.81207     -4340.55907        45.00007  23906238.15606    124871.82206     -3241.30706        37.50006
E25  24160101.81027    638701.59427     -1809.54327        43.50027  24160116.20025   2568228.92825     -1346.16825        34.60025
E05  21805678.74307    373733.64907     -3007.86507        43.60007  21805685.03825    272048.45725     -2243.34825        34.50025
E16  23291323.95207    161437.58407     -2994.20707        42.90007                                                                
R16  19881014.46007-106353454.81107     -4293.51507        43.50007
R09  21694219.50407-115998511.46807     -1333.58507        41.50007
C10  38024137.43706    264439.15706     -2935.76506        40.40006                                                                
E03  25818577.67116    325445.49716      -941.21016        38.90016  25818589.66225  -1835583.80425      -708.00525        31.30025
E09  25508785.03606   4448377.56706     -5364.99306        38.30006  25508804.82225   3329829.29225     -4009.74625        31.40025
R05  20680311.51826-110700868.17926     -6751.64526        37.50026
C34  25075095.67216   3855586.13616     -1706.03816        35.70016                                                                
R06  19754515.23405-105566361.82005     -1961.83405        34.00005
C37  26418502.55125    532575.89625     -1059.96025        33.10025  26418518.74006   2629453.46906      -801.66106        36.40006
R07  23055377.99425-123570208.11725       678.68225        33.80025
R15  22383412.38626-119762866.07226     -6402.73626        38.90026
E31  27166911.93824   2993759.30124     -5915.77024        24.90024                                                                
> 2024 12 29 08 49 40.9999999  0 26                      
G14  20233552.40308    176631.01608     -3988.38208        47.90008  20233562.89606    135712.50206     -2978.32406        37.90006
G30  21402412.91807     94000.68107     -4218.01307        46.00007  21402422.81106    -57717.79506     -3149.73306        40.10006
G05  22703828.16707    263625.60707     -4738.04207        43.50007                                                                
G22  20350186.95907   2959029.25907     -2941.67207        41.50007                                                                
G13  20919679.00807    254059.90407     -1182.92007        42.20007                                                                
G17  22135012.45016    373724.14216      -842.60716        37.00016                                                                
G19  24123117.91316    382545.37816        -8.77416        37.20016                                                                
G20  23391615.32226   4029202.78826     -5924.68226        35.80026                                                                
G15  23320842.71726    385962.94026        45.16326        37.90026                                                                
G07  23504790.87224   3848676.98824     -5043.74424        26.00024                                                                
E24  23906444.71307     87393.52607     -4348.01807        45.00007  23906452.50706    121627.84006     -3246.69406        37.20006
R05  20680961.16917-110707605.83317     -6758.76717        42.50017
E25  24159837.99217    636891.22217     -1813.72817        43.50017  24159849.38425   2566876.61425     -1356.50925        34.30025
E05  21805634.97307    370722.06307     -3015.32307        43.50007  21805648.16425    269799.77125     -2252.27625        34.50025
E16  23291276.88507    158439.79107     -3001.43507        42.90007                                                                
R16  19881204.82807-106357735.03407     -4301.14707        43.30007
R09  21693858.85406-115999847.81106     -1342.25406        41.40006
E03  25818142.07206    324500.56806      -948.44606        39.00006  25818175.94925  -1836296.33225      -715.80725        31.90025
C10  38024085.57326    261499.61826     -2943.21726        40.20026                                                                
E09  25509202.34706   4443008.81206     -5372.46506        38.50006  25509215.83725   3325819.43325     -4011.82125        31.40025
C34  25074819.86306   3853877.65006     -1711.73706        35.60006                                                                
R06  19754282.59505-105568379.80605     -1969.64305        34.10005
C37  26418090.63625    531509.92025     -1070.27425        33.40025  26418112.82106   2628649.20506      -806.84506        36.40006
R07  23054643.20325-123569546.35025       664.94825        33.50025
R15  22383998.78026-119769264.17926     -6405.43826        37.60026
E31  27167426.38224   2987837.09324     -5926.97024        24.80024                                                                
> 2024 12 29 08 49 42.0000000  0 26                      
G14  20233719.08808    172638.24208     -3996.87908        47.80008  20233729.58006    132731.02406     -2984.47706        37.30006
G30  21402621.57307     89778.69407     -4225.91307        45.90007  21402634.16506    -60870.59706     -3155.75706        40.10006
G05  22704126.76007    258882.92307     -4746.91907        43.80007                                                                
G22  20350152.18307   2956082.96407     -2950.49207        41.60007                                                                
G13  20919317.15807    252872.60207     -1191.32807        42.00007                                                                
G17  22134579.84926    372876.11626      -852.95926        37.70026                                                                
G19  24122514.73106    382532.46806       -16.71006        37.10006                                                                
G20  23392150.15126   4023285.56326     -5917.04426        35.70026                                                                
G15  23320255.72326    386000.39726        31.73926        36.90026                                                                
G07  23505166.81224   3843624.69524     -5059.82124        26.00024                                                                
R05  20681639.59907-110714400.84907     -6768.94207        43.80007
E24  23906678.55107     83041.17107     -4356.38007        44.80007  23906688.74406    118377.63506     -3253.30906        37.00006
E25  24159590.96307    635072.11607     -1823.21907        43.70007  24159602.65526   2565518.34026     -1361.25026        37.80026
R16  19881418.58007-106362042.77207     -4309.20307        43.20007
E16  23291263.69407    155433.66507     -3010.28707        42.80007                                                                
E05  21805614.88707    367702.28707     -3023.86407        43.30007  21805628.97725    267546.49325     -2255.56925        34.10025
R09  21693518.88907-116001198.67007     -1350.27107        41.90007
E09  25509634.04806   4437632.50906     -5380.06406        38.70006  25509646.33925   3321805.60325     -4015.80725        31.60025
C10  38024065.18726    258551.82126     -2951.92126        40.00026                                                                
E03  25817745.44726    323546.45626      -958.70126        39.00026  25817751.74225  -1837014.85025      -721.51125        30.60025
C34  25074551.54906   3852159.81106     -1722.51106        35.50006                                                                
R06  19754063.14705-105570371.83105     -1978.82905        34.20005
C37  26417709.60015    530434.98315     -1079.41515        34.10015  26417726.38906   2627839.17506      -812.91006        36.90006
R07  23053923.70125-123568866.96325       664.64225        33.30025
R15  22384593.26926-119775608.76526     -6416.27326        36.50026
E31  27167950.12024   2981904.12524     -5938.33624        24.70024                                                                
> 2024 12 29 08 49 43.0000000  0 26                      
G14  20233854.29408    168640.22608     -4000.62908        47.70008  20233868.08516    129745.38216     -2987.71816        37.30016
G17  22134120.26716    372025.02116      -852.62816        40.60016                                                                
G30  21402807.14507     85551.50007     -4229.78907        45.80007  21402816.13906    -64026.93006     -3158.09206        40.10006
G05  22704415.16027    254134.90827     -4750.67127        43.80027                                                                
G22  20350093.12407   2953131.13007     -2954.59807        42.00007                                                                
G13  20918918.43407    251680.03007     -1195.20407        42.00007                                                                
G19  24121899.25706    382515.02806       -19.70506        37.10006                                                                
G20  23392646.60826   4017358.02726     -5932.68026        35.70026                                                                
G15  23319632.15526    386030.16626        25.92526        35.90026                                                                
G07  23505510.67424   3838563.23024     -5066.04224        25.90024                                                                
E25  24159316.95307    633247.51807     -1827.34107        44.00007  24159326.84616   2564155.80316     -1364.66616        38.30016
R05  20682278.75617-110721146.91417     -6773.18617        44.10017
E24  23906886.90717     78683.74417     -4359.95417        44.70017  23906895.00106    115123.78706     -3255.66306        37.00006
R16  19881608.04907-106366381.07707     -4313.14007        43.10007
E16  23291211.23007    152422.32207     -3013.94607        42.80007                                                                
E05  21805566.92007    364677.50307     -3027.28307        43.20007  21805582.80915    265287.92015     -2261.21515        34.20015
R09  21693143.84907-116002519.72607     -1355.25707        44.20007
E09  25510039.96706   4432254.35606     -5379.06906        38.80006  25510048.96125   3317790.84125     -4015.22025        31.60025
C10  38024001.33226    255598.14926     -2956.60326        39.70026                                                                
C37  26417303.68115    529355.14415     -1082.28815        34.60015  26417311.77606   2627024.78606      -816.56806        37.30006
R06  19753810.42205-105572345.53005     -1983.38205        34.30005
E03  25817295.75826    322587.10126      -961.97426        38.60026  25817327.53625  -1837732.40825      -717.07725        31.30025
R07  23053182.01425-123568229.70425       653.57625        33.00025
R15  22385169.17026-119782013.75126     -6427.36326        35.50026
C34  25074259.55125   3850435.39825     -1727.69725        34.90025  25074249.05923   3662480.33423     -1257.22823        20.40023
E31  27168456.46924   2975967.22924     -5938.84824        24.60024                                                                
> 2024 12 29 08 49 43.9999998  0 26                      
G14  20233919.04908    164637.80408     -4004.61708        47.60008  20233929.54206    126756.47606     -2990.53206        37.20006
G30  21402906.97607     81320.37707     -4233.07907        45.70007  21402920.16706    -67186.39906     -3161.03006        40.10006
G05  22704618.42017    249382.91817     -4753.96917        43.80017                                                                
G17  22133576.74427    371168.63727      -859.02727        45.00027                                                                
G22  20349956.41807   2950174.69407     -2958.73107        42.10007                                                                
G13  20918448.36007    250483.35207     -1198.72907        41.90007                                                                
G19  24121206.43626    382493.49626       -23.57926        37.00026                                                                
G20  23393082.20626   4011426.77626     -5933.09626        35.80026                                                                
G15  23318929.14125    386061.01125        31.38425        35.10025                                                                
G07  23505788.28124   3833497.34524     -5068.08324        25.80024                                                                
E25  24158963.19807    631418.69607     -1830.93007        44.10007  24158973.39106   2562790.19706     -1367.13706        37.60006
R05  20682847.76227-110727935.04827     -6779.09027        44.10027
E24  23907012.22007     74321.66607     -4364.39407        44.50007  23907024.21206    111866.50006     -3258.99906        36.90006
R15  22385672.52116-119788448.55816     -6429.57916        41.00016
E16  23291082.61907    149406.50707     -3018.04407        42.80007                                                                
R16  19881714.47527-106370693.40027     -4317.47927        43.00027
E05  21805448.50207    361648.22007     -3032.27507        43.00007  21805456.59705    263025.84805     -2263.81705        34.00005
R09  21692710.64907-116003950.04707     -1358.63507        43.80007
E09  25510364.94226   4426873.46126     -5383.00326        39.00026  25510375.13525   3313768.71925     -4025.79425        32.00025
C10  38023874.81916    252641.15716     -2958.64616        39.40016                                                                
C37  26416803.92725    528272.10425     -1084.63925        35.00025  26416819.21706   2626207.82206      -818.24906        37.20006
R06  19753476.15305-105574302.43405     -1987.62505        34.30005
R07  23052349.19125-123567524.27825       655.65525        32.90025
E03  25816787.61026    321626.34326      -961.45826        37.60026  25816807.69625  -1838452.79425      -721.79725        31.20025
C34  25073895.90325   3848709.78225     -1726.21425        33.50025                                                                
E31  27168899.86224   2970030.40424     -5936.77624        24.60024                                                                
> 2024 12 29 08 49 44.9999999  0 26                      
G14  20234090.23108    160627.31908     -4014.50908        47.60008  20234098.02506    123761.56306     -2997.90906        36.40006
G30  21403122.52707     77081.37407     -4242.93307        45.70007  21403133.61906    -70351.95906     -3168.59906        39.80006
G05  22704936.20007    244622.23307     -4765.02207        43.80007                                                                
G22  20349923.74107   2947210.65507     -2967.83307        42.40007                                                                
G17  22133149.53927    370300.13227      -874.56427        44.60027                                                                
G13  20918083.21207    249279.08707     -1208.05507        41.90007                                                                
G19  24120613.74726    382461.26426       -37.58126        37.00026                                                                
G20  23393615.53726   4005486.13126     -5945.32926        35.80026                                                                
G15  23318322.36125    386085.42525        21.19725        34.30025                                                                
G07  23506142.33624   3828430.20724     -5067.75424        25.70024                                                                
E25  24158719.46707    629582.71507     -1839.55707        44.10007  24158730.85906   2561419.13406     -1373.78906        37.30006
E24  23907255.65107     69952.00107     -4373.44807        44.40007  23907263.74606    108603.41506     -3265.97606        36.80006
R05  20683520.79727-110734700.99927     -6787.95427        44.00027
E16  23291071.82607    146383.18507     -3027.06907        42.90007                                                                
R09  21692366.18707-116005274.92907     -1366.95607        43.60007
E05  21805437.11007    358611.12707     -3040.74107        43.00007  21805443.40615    260758.04015     -2270.67115        33.90015
R16  19881932.72417-106375025.59617     -4326.09217        42.90017
R15  22386287.99506-119794904.00906     -6439.37606        41.20006
E09  25510796.64326   4421481.32326     -5396.74826        39.10026  25510810.73325   3309744.05025     -4025.93325        32.70025
C10  38023849.63716    249676.24016     -2968.87216        39.20016                                                                
C37  26416412.69825    527180.16525     -1096.38525        35.10025  26416436.08206   2625385.55706      -824.91506        37.20006
R06  19753274.69215-105576390.66215     -1997.31215        34.40015
R07  23051643.47925-123566919.18825       644.78725        32.70025
C34  25073639.28125   3846981.53425     -1729.56025        32.10025                                                                
E31  27169467.96924   2964094.10724     -5936.02124        24.50024                                                                
E03  25816384.98926    320658.20326      -971.82926        36.50026  25816401.47725  -1839179.05325      -729.19525        31.10025
> 2024 12 29 08 49 45.9999999  0 27                      
G14  20234212.54608    156611.11508     -4019.05408        47.50008  20234222.43906    120762.54406     -3001.06606        36.40006
G30  21403288.61207     72837.03207     -4247.00307        45.60007  21403300.30406    -73521.42906     -3171.41806        39.20006
G05  22705205.11407    239855.72907     -4769.40307        43.80007                                                                
G22  20349847.59407   2944240.58807     -2973.07607        42.50007                                                                
G17  22132678.56527    369433.39927      -865.84527        44.20027                                                                
G13  20917676.69407    248068.53207     -1213.69907        41.80007                                                                
G19  24119982.38426    382425.80126       -37.07926        36.90026                                                                
G20  23394109.59526   3999540.89826     -5947.51426        35.90026                                                                
G07  23506476.60524   3823358.86824     -5073.43024        25.60024                                                                
C23  22781826.37017    275783.06717     -2460.11717        46.20017  22781828.46825   4323896.80125     -1850.77025        34.60025
E25  24158423.87127    627741.32127     -1843.34727        44.10027  24158438.56126   2560048.62426     -1370.23126        36.30026
E24  23907452.61507     65576.67207     -4378.15307        44.20007  23907454.71406    105336.17406     -3269.31406        36.70006
R05  20684144.66527-110741463.89327     -6792.69627        43.90027
R09  21691987.25007-116006675.44907     -1372.74707        43.50007
E16  23290999.87617    143354.23017     -3031.01517        42.90017                                                                
E05  21805365.16017    355568.65617     -3045.15517        42.90017  21805380.74905    258485.85805     -2274.36505        33.90005
R16  19882097.91007-106379333.33207     -4332.26907        42.80007
R15  22386840.51306-119801283.76406     -6442.41806        41.10006
E09  25511180.67726   4416083.54326     -5400.84026        39.20026  25511195.66725   3305718.99025     -4025.24825        33.00025
C10  38023778.88616    246705.48116     -2973.67516        38.90016                                                                
C33  25170471.04516   4153770.97116     -6630.66216        38.00016                                                                
C37  26415987.89215    526082.96715     -1099.82615        35.20015  26416004.68006   2624558.72706      -829.11106        37.10006
R06  19752995.28615-105578321.60615     -2003.10015        34.40015
R07  23050899.99425-123566371.54525       640.35925        32.50025
E03  25815945.79325    319679.07125      -984.62625        35.40025  25815955.08625  -1839916.91725      -743.66425        30.80025
C34  25073347.88225   3845245.06725     -1740.57325        30.90025                                                                
E31  27169933.54624   2958154.55024     -5941.17424        24.40024                                                                
> 2024 12 29 08 49 47.0000000  0 28                      
G14  20234382.22908    152588.24508     -4026.19508        47.50008  20234394.22006    117758.54706     -3006.48106        36.30006
G05  22705526.49117    235082.92117     -4775.95017        44.20017                                                                
G22  20349823.91007   2941263.65507     -2980.35907        42.60007                                                                
G17  22132254.65917    368557.40917      -880.61617        43.80017                                                                
G13  20917310.64727    246849.65027     -1223.04227        41.70027                                                                
G20  23394649.22126   3993590.55426     -5952.88826        36.40026                                                                
G19  24119394.79026    382387.11226       -40.30226        36.80026                                                                
G30  21403500.56507     68586.14307     -4254.15307        45.00007  21403516.15426    -76695.63126     -3176.56126        37.60026
G15  23317095.61125    386107.45025        10.20525        30.90025                                                                
G07  23506851.04624   3818283.10024     -5077.97124        25.40024                                                                
C23  22781707.95207    273317.85807     -2465.20407        46.30007  22781712.14926   4322044.38126     -1852.41526        35.60026
E25  24158185.83617    625892.83717     -1853.02417        44.00017  24158198.12726   2558670.74326     -1381.56326        36.10026
E24  23907683.75507     61195.15607     -4384.60007        44.10007  23907694.24806    102064.20806     -3274.32106        37.40006
R05  20684824.29427-110748265.02827     -6798.65927        43.70027
E16  23290983.68807    140318.40307     -3039.50607        42.90007                                                                
R09  21691655.08017-116008066.80017     -1379.15617        43.40017
E05  21805354.06707    352519.28407     -3052.81407        42.80007  21805368.75705    256208.81105     -2279.47405        33.90005
E09  25511616.57516   4410682.29616     -5402.96916        39.40016  25511630.96525   3301685.07825     -4038.32825        33.10025
C33  25171152.17406   4147136.24206     -6634.71406        38.20006                                                                
C10  38023757.90006    243729.85606     -2978.05106        38.70006                                                                
C37  26415626.64225    524983.01825     -1101.32225        35.20025  26415624.54406   2623726.85506      -834.39006        37.10006
R06  19752771.04105-105580286.14305     -2010.85805        34.40005
R16  19882301.16927-106383584.51027     -4341.28727        41.50027
R07  23050181.09225-123565695.98825       642.65225        32.40025
R15  22387431.10426-119807606.17626     -6450.99926        40.70026
E03  25815541.67225    318690.92825      -992.64625        34.30025  25815550.66625  -1840651.35825      -732.72825        30.50025
C34  25073083.76525   3843500.94125     -1747.95225        29.70025                                                                
E31  27170434.79924   2952209.64024     -5947.57524        24.20024                                                                
> 2024 12 29 08 49 48.0000001  0 26                      
G14  20234537.82108    148567.91808     -4019.04708        47.50008  20234546.81516    114756.24216     -3001.45216        35.60016
G05  22705816.39007    230313.08307     -4768.34207        44.30007                                                                
G22  20349776.84307   2938289.24107     -2973.14707        42.90007                                                                
G20  23395170.86026   3987640.43526     -5949.99226        39.90026                                                                
G17  22131800.47327    367683.54427      -872.80127        43.30027                                                                
G13  20916940.40326   6002763.30426     -1212.17126        40.00026                                                                
G15  23316482.23525    386121.44925        13.99925        30.60025                                                                
G07  23507205.40024   3813212.40824     -5068.14424        25.30024                                                                
C23  22781569.44807    270855.96007     -2460.23607        46.30007  22781574.24426   4320191.64226     -1852.89526        37.60026
E25  24157930.11307    624046.90007     -1844.40907        44.10007  24157939.40726   2557293.24126     -1377.31026        36.00026
R09  21691302.82407-116009448.97607     -1372.68207        43.30007
E16  23290951.91007    137285.29307     -3031.74507        42.90007                                                                
E05  21805328.28507    349472.63807     -3045.27707        42.80007  21805336.38005    253933.76705     -2274.03705        33.50005
E24  23907911.29707     56816.03307     -4377.91607        43.90007  23907917.59306     98794.08606     -3269.19306        37.20006
R05  20685489.83317-110755088.34617     -6792.30617        43.60017
C33  25171813.81606   4140504.25906     -6630.59606        39.40006                                                                
E09  25512032.68706   4405281.78706     -5400.12706        39.50006  25512046.17825   3297652.19625     -4032.36025        34.80025
C10  38023713.83126    240756.38626     -2972.38626        38.60026                                                                
C37  26415209.93125    523882.05825     -1101.46225        35.20025  26415224.92006   2622897.75206      -827.71806        39.00006
R06  19752541.10005-105582320.16105     -2003.44905        34.50005
R16  19882521.51726-106388025.22526     -4330.44526        40.10026
R07  23049450.49725-123565055.66525       646.34525        32.20025
E03  25815123.46225    317699.29925      -993.37025        33.30025  25815126.76025  -1841375.16025      -718.48125        30.10025
C34  25072805.55824   3841753.48924     -1749.11124        28.70024                                                                
E31  27170948.34424   2946264.59024     -5945.10724        24.00024                                                                
G30                                                                  21403714.31726    -79869.78826     -3174.12726        37.60026
> 2024 12 29 08 49 48.9999998  0 27                      
G14  20234587.28708    144551.57108     -4014.35108        47.50008  20234600.47816    111757.09516     -2997.56216        35.60016
G05  22706005.85907    225546.47707     -4764.98107        44.90007                                                                
G22  20349630.24407   2935318.78107     -2968.47807        43.10007                                                                
G20  23395593.26817   3981694.21617     -5944.25917        42.30017                                                                
G17  22131252.75327    366814.53627      -866.57727        42.00027                                                                
G13  20916463.73326   6001552.75226     -1210.55026        38.40026                                                                
G15  23315756.43825    386138.60525        18.73425        30.30025                                                                
G07  23507462.92224   3808143.69524     -5067.71324        25.20024                                                                
G30  21403820.44326     60103.17926     -4233.25726        39.00026  21403810.85026    -83045.00326     -3175.73826        37.50026
R09  21690844.74107-116010808.23307     -1367.22707        44.30007
C23  22781328.11507    268398.07407     -2455.87507        46.30007  22781332.61226   4318340.21526     -1850.76726        37.50026
E25  24157564.66607    622205.18007     -1838.85907        44.70007  24157576.65826   2555919.33826     -1372.10026        39.50026
E16  23290817.30307    134256.48307     -3026.65407        43.50007                                                                
E05  21805194.57807    346430.07307     -3040.51807        43.40007  21805202.97205    251661.71905     -2270.54605        33.30005
R05  20686043.85027-110761858.88527     -6786.01927        43.50027
C33  25172377.72606   4133876.31906     -6625.90606        39.80006                                                                
E09  25512348.66906   4399885.42906     -5394.27306        39.50006  25512361.56026   3293620.61926     -4030.91526        36.00026
C37  26414709.27715    522784.82315     -1095.37215        35.40015  26414722.76806   2622071.68206      -824.55206        38.80006
R06  19752198.13805-105584292.33305     -1999.16805        34.60005
E24  23908029.11627     52442.35627     -4370.94627        42.60027  23908039.00926     95526.13126     -3266.86526        36.90026
R07  23048638.06025-123564521.04125       649.35425        32.00025
R16  19882628.24326-106392402.50826     -4321.34826        38.60026
E03  25814596.12725    316717.92525      -976.24525        32.40025                                                                
R15  22388573.31326-119820783.14426     -6434.30126        36.10026
C34  25072443.70824   3840010.65524     -1740.52124        27.80024                                                                
E31  27171391.13724   2940325.77124     -5935.69124        23.80024                                                                
C25  22327803.58326   6051424.89526     -4639.32826        37.10026                                                                
> 2024 12 29 08 49 49.9999999  0 27                      
G14  20234745.57718    140534.30718     -4018.46218        47.50018  20234754.87126    108752.21626     -3007.73726        35.50026
G05  22706286.16517    220778.51017     -4768.63817        45.80017                                                                
G22  20349585.57507   2932347.03607     -2972.38007        43.20007                                                                
G20  23396113.10827   3975743.09427     -5953.56027        42.20027                                                                
G17  22130813.55726    365944.43126      -870.65026        41.30026                                                                
G19  24117488.71025   6166446.33525       -39.77025        30.70025                                                                
G30  21403997.32126     55868.02226     -4235.14726        37.00026  21404014.10926    -86216.85526     -3170.16326        37.20026
G13  20916084.79626   6000342.63326     -1209.89926        36.90026                                                                
G15  23315121.17725    386162.00225        26.51825        30.00025                                                                
G07  23507795.39224   3803077.58424     -5064.79924        25.00024                                                                
R09  21690492.48508-116012189.65008     -1371.29908        48.00008
C23  22781188.11207    265938.17907     -2460.89507        46.20007  22781194.40726   4316487.98226     -1852.63326        37.00026
E25  24157303.24707    620362.51307     -1843.38707        45.10007  24157316.73826   2554543.38526     -1376.97626        39.30026
E05  21805159.80207    343386.66607     -3043.82207        44.00007  21805171.19425    249387.73425     -2274.94925        34.00025
E16  23290783.72607    131226.32507     -3030.82507        43.80007                                                                
R05  20686707.59027-110768673.02527     -6792.61927        43.30027
C33  25173038.76806   4127247.47406     -6629.28206        40.80006                                                                
E09  25512760.28406   4394488.80606     -5396.74306        39.50006  25512778.27126   3289587.15126     -4034.40626        36.50026
C37  26414310.55306    521688.00706     -1096.60306        36.00006  26414322.54506   2621244.69006      -827.45106        39.00006
R07  23047889.17825-123563783.44625       642.72325        31.80025
R16  19882841.69526-106396806.54926     -4331.08526        37.10026
E24  23908247.66526     48066.19826     -4377.38926        40.70026  23908268.65026     92254.58026     -3273.34226        36.50026
C25  22328091.08425   6046782.68125     -4642.20425        35.40025                                                                
R15  22389151.91325-119827139.96025     -6431.41325        34.30025
C34  25072155.90824   3838272.95724     -1735.12724        27.00024                                                                
E31  27171940.35724   2934392.37124     -5930.67824        23.50024                                                                
E03  25814180.61525    315746.66225      -966.20625        31.60025                                                                
> 2024 12 29 08 49 51.0000000  0 27                      
G05  22706618.03507    216013.97307     -4762.81207        45.80007                                                                
G22  20349557.69407   2929377.78507     -2967.99807        43.40007                                                                
G20  23396651.83527   3969800.68027     -5938.04727        42.00027                                                                
G17  22130389.95026    365074.36826      -870.04226        40.90026                                                                
G15  23314533.58425    386186.05425        24.38025        29.80025                                                                
G13  20915733.13926   5999131.42826     -1211.74726        35.60026                                                                
G30  21404232.05826     51624.54426     -4247.63026        35.70026                                                                
G19  24116913.10825   6166406.54725       -39.78825        30.30025                                                                
G07  23508163.23724   3798015.06324     -5060.71624        24.90024                                                                
R09  21690163.91208-116013600.09708     -1366.90608        48.00008
E25  24157061.31407    618523.76207     -1837.53807        45.20007  24157073.60626   2553170.43926     -1371.43926        38.40026
C23  22781069.99317    263481.25917     -2455.42717        46.10017  22781073.89125   4314638.01625     -1848.82825        35.30025
E05  21805149.60907    340345.26607     -3040.38907        44.10007  21805157.70325    247115.75825     -2270.96625        33.80025
E16  23290767.53707    128198.67407     -3026.39107        44.00007                                                                
R05  20687386.32017-110775470.33517     -6787.05017        43.20017
C33  25173715.69906   4120619.52006     -6627.49406        41.40006                                                                
E09  25513193.18406   4389093.47406     -5394.67406        39.50006  25513212.67026   3285556.66326     -4028.98926        36.30026
C37  26413932.21506    520595.25406     -1090.71806        36.60006  26413940.01006   2620419.77206      -823.87906        39.20006
R07  23047169.97625-123563106.35625       647.32025        31.60025
R16  19883071.93626-106401202.94026     -4327.29326        35.70026
E03  25813749.81325    314781.73625      -961.75525        30.90025                                                                
C25  22328393.57525   6042140.53125     -4642.10825        33.90025                                                                
R15  22389760.79125-119833560.99925     -6427.71825        32.80025
C34  25071880.39824   3836537.74824     -1733.96124        26.30024                                                                
R06  19751732.86025-105588232.86425     -2022.04125        30.20025
E31  27172479.98423   2928460.91523     -5930.47223        23.30023                                                                
G14                                                                  20234932.04825    105743.65325     -3010.39925        35.30025
> 2024 12 29 08 49 52.0000000  0 27                      
G05  22706889.94707    211253.73707     -4758.07507        45.90007                                                                
G22  20349480.94707   2926413.19707     -2962.25007        43.50007                                                                
G20  23397139.29827   3963860.77727     -5938.63727        41.80027                                                                
G17  22129909.98226    364208.37526      -863.95526        40.50026                                                                
G15  23313889.33025    386211.88425        26.71925        29.50025                                                                
G13  20915302.93725   5997919.83125     -1211.78925        34.40025                                                                
G30  21404398.14425     47381.27725     -4243.15325        34.40025                                                                
G14  20235052.86427    132508.83327     -4007.37127        41.70027  20235056.16225    102737.05725     -3005.60825        35.00025
G19  24116282.64525   6166375.34325       -26.91325        29.80025                                                                
G07  23508474.42224   3792959.88224     -5051.50124        24.80024                                                                
R09  21689778.97808-116014966.22908     -1360.13508        47.90008
E25  24156769.61607    616689.18407     -1832.23807        45.50007  24156781.60826   2551798.09526     -1372.04026        38.10026
E16  23290697.68607    125175.85907     -3020.39107        44.10007                                                                
R05  20688019.78207-110782282.85107     -6784.53907        43.10007
C33  25174346.76226   4113996.42326     -6620.65526        41.30026                                                                
E09  25513581.11506   4383703.39206     -5388.19706        39.50006  25513595.50526   3281534.03426     -4018.69226        36.40026
C37  26413497.51616    519507.45716     -1085.31816        36.70016  26413507.70906   2619599.62806      -817.75406        39.00006
R07  23046415.09925-123562495.14025       653.47525        31.50025
C23  22780900.91027    261026.99527     -2452.93127        43.70027  22780905.40725   4312789.47425     -1847.82725        35.10025
R16  19883234.12325-106405493.09225     -4324.55725        34.40025
E03  25813310.61725    313818.46925      -962.43625        30.20025                                                                
R15  22390340.29025-119840082.96625     -6418.01025        31.50025
R06  19751416.87924-105589966.82124     -2024.51824        28.80024
E31  27172965.04823   2922531.94723     -5927.71223        23.00023                                                                
C34  25071580.30624   3834807.07424     -1728.40324        25.60024                                                                
C25  22328637.30625   6037506.15025     -4630.48825        32.60025                                                                
E05                                                                  21805092.94825    244852.20925     -2259.33225        33.60025
> 2024 12 29 08 49 53.0000001  0 27                      
G05  22707195.13607    206498.51507     -4752.70507        45.90007                                                                
G22  20349452.16707   2923453.23707     -2957.63907        44.20007                                                                
G20  23397682.22217   3957926.08317     -5932.07717        41.60017                                                                
G17  22129479.48026    363347.45026      -858.38926        40.30026                                                                
G15  23313298.73924    386241.17124        31.01524        29.30024                                                                
G13  20914935.09225   5996705.99725     -1214.95125        33.40025                                                                
G30  21404627.78525     43146.44425     -4230.60625        33.20025                                                                
G19  24115662.67424   6166349.37424       -23.35124        29.20024                                                                
G07  23508841.96724   3787904.61124     -5055.30424        24.70024                                                                
R09  21689434.81708-116016296.45008     -1354.81708        47.80008
E25  24156524.38607    614860.90407     -1825.12807        45.50007  24156538.47626   2550429.24526     -1367.10126        37.90026
E16  23290680.29807    122157.76607     -3015.72507        44.60007                                                                
R05  20688686.52007-110789015.90707     -6780.15307        42.90007
E09  25514011.91706   4378317.16906     -5383.28306        40.30006  25514028.40626   3277511.93726     -4021.82126        36.20026
C33  25175030.58916   4107376.59516     -6618.18016        41.20016                                                                
C37  26413119.17806    518424.62906     -1080.34106        36.90006  26413123.37526   2618783.21226      -814.55226        38.90026
R07  23045695.89725-123561819.58225       657.35425        31.50025
R16  19883466.16325-106409899.41425     -4320.38525        33.30025
E03  25812905.59725    312852.79625      -966.87425        29.60025                                                                
C25  22328936.49925   6032874.42825     -4630.38425        31.40025                                                                
R15  22390924.58525-119846374.02725     -6418.94325        30.40025
C34  25071318.58724   3833081.49624     -1723.02724        25.00024                                                                
E31  27173496.88023   2916605.32123     -5925.44323        22.80023                                                                
R06  19751209.42224-105592023.74424     -2035.89924        27.30024
G14                                                                  20235230.34225     99722.46425     -3018.58425        34.60025
C23                                                                  22780782.49225   4310933.68825     -1859.40425        34.90025
E05                                                                  21805074.06125    242593.58525     -2256.15625        33.30025
> 2024 12 29 08 49 53.9999999  0 22                      
G05  22707397.49607    201745.37507     -4752.08907        45.90007                                                                
G22  20349311.56507   2920495.34907     -2956.84707        44.20007                                                                
G20  23398105.82807   3951994.57207     -5929.90607        41.50007                                                                
G17  22128944.05116    362487.43616      -859.55716        40.20016                                                                
G15  23312586.13224    386274.30124        35.05124        29.10024                                                                
G30  21404699.13525     38917.77425     -4225.58025        32.10025                                                                
G19  24114968.35524   6166328.66524       -18.07924        28.60024                                                                
G07  23509110.58124   3782848.82224     -5056.03724        24.70024                                                                
E25  24156172.43007    613034.50807     -1825.44907        46.00007  24156184.42216   2549065.47116     -1361.23216        37.80016
R09  21688997.12008-116017701.55308     -1354.32908        47.60008
E16  23290558.28207    119142.00507     -3014.58807        44.50007                                                                
R05  20689257.02507-110795812.45607     -6778.94007        42.80007
E09  25514338.99126   4372934.66826     -5380.87826        40.20026  25514351.58226   3273493.68926     -4016.31626        36.20026
C37  26412640.11006    517344.32506     -1079.04006        36.80006  26412629.91726   2617969.42026      -812.47826        38.70026
C33  25175595.09826   4100756.34826     -6620.44226        39.20026                                                                
R07  23044863.07325-123561114.92125       661.25525        31.50025
R16  19883561.49725-106414152.88225     -4310.45625        32.30025
C25  22329117.27425   6028248.42325     -4623.13525        30.50025                                                                
R15  22391496.58924-119853175.83624     -6419.44224        29.40024
C34  25070952.84124   3831361.76124     -1716.81024        24.40024                                                                
E31  27173915.69023   2910681.49623     -5922.41223        22.60023                                                                
G14                                                                  20235303.19125     96705.02825     -3018.85125        34.20025
> 2024 12 29 08 49 54.9999999  0 24                      
G05  22707682.29907    196988.95807     -4758.04607        46.00007                                                                
G22  20349249.80807   2917533.59207     -2962.93507        44.10007                                                                
G20  23398616.07506   3946060.15306     -5935.86106        41.40006                                                                
G17  22128490.76506    361624.76506      -863.99706        40.00006                                                                
G30  21404875.41325     34686.98325     -4231.84425        31.20025                                                                
G19  24114362.47424   6166303.64224       -27.18024        28.00024                                                                
G07  23509446.94924   3777794.21824     -5054.00124        24.60024                                                                
G14  20235440.49625    120504.33025     -4009.13325        33.70025  20235441.99525     93692.33425     -3010.31725        33.70025
G15  23311967.36124    386299.29924        20.93324        28.90024                                                                
E25  24155897.52007    611204.93507     -1831.15907        46.50007  24155908.31306   2547699.22106     -1367.48606        37.70006
R09  21688617.88207-116019001.21907     -1360.37707        47.30007
R05  20689904.57707-110802603.65407     -6785.14407        42.80007
E09  25514737.41516   4367547.96116     -5388.80016        40.20016  25514754.50316   3269471.66416     -4023.90416        37.30016
E16  23290510.01527    116123.19127     -3020.33527        42.60027                                                                
C37  26412219.80116    516260.85116     -1085.05716        36.80016  26412216.20326   2617152.43826      -818.57526        38.50026
C33  25176242.95016   4094134.60816     -6622.47316        38.40016                                                                
R07  23044130.38115-123560525.91615       654.09615        31.90015
R16  19883722.18625-106418338.32525     -4317.31125        31.40025
C25  22329375.09525   6023626.25525     -4620.24125        29.60025                                                                
R15  22392061.69824-119859523.47624     -6424.65624        28.50024
C23  22780402.05625    253662.42225     -2460.30825        35.40025                                                                
E31  27174417.84223   2904756.60223     -5925.41723        22.30023                                                                
C34  25070666.23924   3829638.05924     -1725.68124        23.90024                                                                
R06  19750547.48023-105595554.26623     -2062.43023        23.20023
> 2024 12 29 08 49 56.0000000  0 24                      
G05  22707995.58207    192224.91107     -4767.85207        46.00007                                                                
G22  20349226.12427   2914565.57127     -2972.14827        44.00027                                                                
G20  23399156.00106   3940118.56806     -5945.15506        41.30006                                                                
G17  22128057.86426    360754.97726      -873.34426        39.90026                                                                
G30  21405087.06725     30446.10625     -4245.91125        30.50025                                                                
G19  24113786.27324   6166267.24424       -42.08624        27.50024                                                                
G07  23509798.30524   3772729.81224     -5069.29724        24.50024                                                                
G14  20235623.07025    116491.37025     -4012.95225        32.10025  20235616.47425     90692.55425     -2993.31725        33.10025
G13  20913693.65124   5993083.14624     -1215.46524        25.80024                                                                
E25  24155652.88907    609367.99107     -1840.62407        46.50007  24155666.08006   2546327.58906     -1374.31906        37.50006
R09  21688284.21307-116020384.16507     -1370.03907        47.10007
R05  20690576.11207-110809360.43407     -6795.14307        42.70007
E09  25515171.21506   4362154.23006     -5397.23106        40.10006  25515188.30306   3265443.81106     -4030.76006        38.10006
E16  23290490.22917    113096.53117     -3031.32517        42.00017                                                                
R07  23043421.07205-123559901.67805       644.45205        32.80005
C37  26411836.06616    515168.87116     -1096.23116        36.60016  26411832.46926   2616328.77826      -826.99726        37.00026
C33  25176927.07606   4087505.82006     -6632.29706        37.90006                                                                
R16  19883954.22525-106422743.90025     -4342.88025        30.60025
C25  22329675.18824   6018995.81024     -4634.57424        28.80024                                                                
R15  22392646.59324-119865816.06924     -6432.76924        27.80024
C23  22780282.73825    251198.82025     -2463.59725        33.50025                                                                
E31  27174957.76823   2898823.45423     -5937.26223        22.10023                                                                
C34  25070403.02123   3827902.50523     -1741.47723        23.40023                                                                
R06  19750434.45923-105598115.11423     -2075.25023        22.30023
> 2024 12 29 08 49 57.0000001  0 24                      
G05  22708290.27807    187454.50207     -4773.57907        46.00007                                                                
G22  20349178.75717   2911590.17717     -2978.82317        43.80017                                                                
G20  23399672.54406   3934170.78006     -5950.87706        41.30006                                                                
G17  22127618.96826    359878.78026      -879.40026        39.70026                                                                
G30  21405294.52325     26197.96425     -4251.76525        29.80025                                                                
G19  24113174.69724   6166226.34224       -43.15324        27.10024                                                                
G07  23510154.45924   3767656.05824     -5078.41624        24.30024                                                                
G14  20235775.36425    112473.07325     -4020.95725        30.70025  20235772.66625     87680.49625     -3018.19025        32.60025
G13  20913307.81824   5991865.02524     -1218.11824        24.70024                                                                
E25  24155389.97107    607524.71907     -1846.43207        46.50007  24155406.46006   2544951.07006     -1378.95906        37.40006
R09  21687930.45807-116021758.71007     -1375.74807        46.90007
R05  20691241.95107-110816186.81707     -6801.15807        42.60007
E09  25515584.32906   4356754.14506     -5403.25006        40.00006  25515604.41506   3261411.46206     -4034.58706        40.90006
R07  23042684.18206-123559226.89006       638.59606        39.80006
C37  26411432.84606    514072.21806     -1098.98606        36.70006  26411430.14726   2615502.59926      -827.43626        36.40026
E16  23290454.25406    110063.82306     -3035.47606        41.20006                                                                
C33  25177592.01606   4080870.90606     -6637.96406        37.50006                                                                
E05  21804847.41825   6867586.16625     -3047.41025        30.50025                                                                
R16  19884149.09025-106427048.57325     -4334.57425        30.00025
C25  22329946.20024   6014360.34724     -4637.96224        28.10024                                                                
R15  22393191.91624-119871993.97324     -6435.83624        27.10024
C23  22780156.52625    248729.41525     -2472.30125        31.80025                                                                
E31  27175468.91423   2892879.97023     -5948.64023        21.90023                                                                
C34  25070134.40723   3826153.47223     -1755.76923        22.90023                                                                
> 2024 12 29 08 49 57.9999999  0 24                      
G05  22708497.73407    182683.22807     -4771.69707        46.20007                                                                
G22  20349045.94907   2908613.97907     -2976.59507        43.70007                                                                
G20  23400098.54906   3928222.68306     -5948.23806        41.20006                                                                
G17  22127087.13626    359001.13526      -878.36826        38.70026                                                                
G30  21405421.03524     21948.58924     -4249.98224        29.20024  21405438.42324   4727705.22324     -3128.20324        24.80024
G19  24112470.18424   6166183.60824       -43.65124        26.80024                                                                
G07  23510402.38724   3762581.94624     -5074.28024        24.20024                                                                
G14  20235847.61425    108456.03725     -4016.39825        29.50025  20235835.02325     84674.54625     -3002.89125        31.90025
G13  20912848.53624   5990645.11224     -1220.80824        24.00024                                                                
E25  24155043.41107    605680.75907     -1844.30107        46.80007  24155055.70306   2543573.92606     -1377.45406        36.70006
R09  21687487.36507-116023134.77807     -1373.80607        46.80007
R05  20691817.25307-110823008.60307     -6799.36807        42.50007
E09  25515912.60106   4351353.77606     -5400.49906        39.90006  25515931.18807   3257378.62907     -4033.06807        41.80007
R07  23041867.24706-123558606.48206       641.12106        39.50006
C37  26410942.38506    512975.14106     -1097.28806        37.10006  26410941.18626   2614676.87526      -825.49526        36.30026
E16  23290327.74206    107030.37406     -3033.81306        40.50006                                                                
C33  25178160.12206   4074235.56906     -6635.53306        37.20006                                                                
E05  21804743.99025   6864537.64825     -3048.51225        29.80025                                                                
R16  19884288.19424-106431535.92324     -4336.27524        29.40024
C25  22330143.76324   6009719.88424     -4642.95224        27.50024                                                                
R15  22393701.26324-119878461.65524     -6439.32824        26.60024
C23  22779910.09625    246259.32525     -2470.42825        30.30025  22779911.59524   4950472.25324     -1851.19124        29.00024
E31  27175904.51323   2886930.51223     -5952.43223        21.70023                                                                
C34  25069762.66423   3824401.77623     -1753.02423        22.60023                                                                
> 2024 12 29 08 49 58.9999999  0 25                      
G05  22708782.83707    177915.59907     -4765.79707        46.80007                                                                
G22  20348989.58807   2905641.32607     -2970.87407        43.50007                                                                
G20  23400603.69906   3922278.55106     -5942.13806        41.20006                                                                
G17  22126623.65716    358127.96116      -870.93616        38.00016                                                                
G30  21405588.91924     17700.96524     -4246.74024        28.70024  21405624.29523   4724612.22523     -3075.38723        21.80023
G15  23309425.12124   7004080.62224        25.97224        25.80024                                                                
G19  24111874.79624   6166147.00624       -33.53524        26.50024                                                                
G07  23510755.54324   3757513.99224     -5064.86624        24.00024                                                                
G14  20235978.32424    104442.80324     -4011.32424        28.30024  20235955.83925     81676.90025     -2993.48625        30.50025
G13  20912457.30723   5989428.62523     -1214.77123        23.30023                                                                
E25  24154768.80207    603840.67907     -1838.13507        47.20007  24154781.09315   2542200.04615     -1372.24515        35.40015
R09  21687117.72107-116024486.39207     -1367.36107        46.70007
R05  20692456.11107-110829752.36807     -6793.03307        42.40007
E09  25516312.82406   4345957.27006     -5394.56406        39.80006  25516335.30906   3253348.64506     -4028.55106        41.40006
R07  23041120.16406-123557939.34906       647.30706        39.30006
C37  26410528.67106    511882.00306     -1091.16506        37.10006  26410528.67116   2613852.92216      -823.06616        36.10016
C33  25178816.66806   4067604.32906     -6629.17906        37.10006                                                                
E16  23290284.27206    104000.80106     -3027.62806        39.90006                                                                
R16  19884455.47824-106435754.99124     -4335.34524        28.90024
E05  21804697.22224   6861490.21824     -3046.88024        29.30024                                                                
C25  22330422.87024   6005082.25924     -4636.19824        27.10024                                                                
R15  22394299.04924-119884982.85524     -6431.31024        26.10024
C23  22779770.69324    243794.19724     -2462.64224        28.90024  22779763.49824   4948627.48824     -1841.54524        28.20024
E31  27176426.75123   2880982.73223     -5946.93023        21.60023                                                                
C34  25069461.97323   3822659.13123     -1738.11623        22.30023                                                                
> 2024 12 29 08 50 00.0000000  0 26                      
G05  22709083.22907    173147.37007     -4768.51707        47.20007                                                                
G22  20348944.31907   2902667.46207     -2974.46207        43.30007                                                                
G20  23401132.23306   3916332.85706     -5946.46106        41.20006                                                                
G17  22126178.46516    357252.79916      -876.15516        37.70016                                                                
G15  23308817.74124   7177117.03724        12.07524        27.30024                                                                
G30  21405795.77624     13462.80524     -4233.41924        28.30024  21405814.36323   4721472.69623     -3162.78723        18.80023
G19  24111267.41724   6166117.14424       -26.49224        26.30024                                                                
G07  23511119.19124   3752447.70024     -5065.44924        23.90024                                                                
G14  20236140.21224    100433.00124     -4008.07824        27.40024  20236117.42725     78686.03725     -2987.46625        30.00025
G13  20912083.16623   5988216.28723     -1210.26223        22.90023                                                                
E25  24154510.98007    602000.23007     -1840.63007        47.40007  24154519.97425   2540823.11725     -1378.45025        34.90025
E09  25516738.23016   4340558.66516     -5399.64316        39.10016  25516751.12116   3249318.81416     -4029.74616        41.10016
R09  21686761.56707-116025848.70907     -1371.70507        46.50007
R05  20693124.04807-110836590.98607     -6797.78807        42.30007
R07  23040382.97506-123557266.09206       646.72106        39.10006
E16  23290253.09306    100970.10706     -3031.24806        39.40006                                                                
C37  26410149.43406    510788.92506     -1093.04706        37.50006  26410127.54916   2613029.09116      -823.76816        36.00016
C33  25179473.51306   4060971.95106     -6632.93306        37.10006                                                                
E05  21804673.83824   6858447.05424     -3041.02424        28.70024                                                                
R16  19884654.84024-106440085.65624     -4332.49524        28.40024
C25  22330706.47424   6000449.90924     -4629.70224        26.60024                                                                
R15  22394797.00524-119890910.73724     -6424.47424        25.70024
C34  25069192.75923   3820926.19723     -1728.07423        22.10023                                                                
E31  27176935.19923   2875033.63423     -5949.74423        21.40023                                                                
C10  38022982.03723   6334342.89823     -2973.92623        20.00023                                                                
C23  22779624.09424    241335.84224     -2454.96224        27.70024  22779623.49524   4946781.07324     -1847.23724        27.40024
> 2024 12 29 08 50 01.0000000  0 27                      
G05  22709360.53727    168376.54927     -4772.10827        47.20027                                                                
G22  20348890.35617   2899692.08917     -2976.12117        43.50017                                                                
G20  23401635.58506   3910385.81006     -5947.71206        41.20006                                                                
G17  22125724.28006    356375.07606      -879.00106        38.60006                                                                
G15  23308175.58624   7177135.48124        18.44424        28.10024                                                                
G30  21405993.03924      9222.01424     -4242.09724        27.90024  21405991.54022   4718295.23722     -3196.41822        15.80022
G19  24110665.13424   6166086.15724       -31.55024        26.10024                                                                
G07  23511474.44524   3747380.53524     -5067.59224        23.80024                                                                
G13  20911721.31723   5987006.49823     -1208.51123        22.60023                                                                
G14  20236267.62324     96422.91624     -4010.21824        26.50024  20236259.82924     75689.99024     -2998.63324        29.10024
E25  24154236.67007    600157.78307     -1842.69207        47.40007  24154248.36226   2539447.44626     -1375.03926        35.90026
R09  21686397.02007-116027227.07007     -1371.37407        46.40007
E16  23290209.32407     97937.72707     -3033.21707        46.60007                                                                
R05  20693768.60207-110843363.82607     -6801.78707        42.20007
E09  25517140.85126   4335158.25126     -5401.30826        39.70026  25517156.74016   3245288.17716     -4031.03216        40.70016
C37  26409712.03716    509694.69916     -1094.79716        37.90016  26409714.13526   2612204.30126      -825.26826        38.20026
E05  21804607.58426   7282365.10626     -3050.73026        36.00026                                                                
R07  23039646.08506-123556654.87506       642.30006        38.90006
C33  25180127.96026   4054335.88126     -6637.90226        37.10026                                                                
C23  22779467.60325    238876.95725     -2459.14625        32.80025  22779466.40424   4944929.93524     -1853.49724        27.00024
R16  19884873.08924-106444577.59424     -4340.40124        28.00024
C25  22330970.29124   5995816.59024     -4633.79524        26.20024                                                                
C32  23842377.26624   6916227.98624     -1593.31324        23.70024                                                                
R15  22395458.94624-119897776.00624     -6427.85324        25.30024
C34  25068883.07323   3819199.18323     -1724.05123        21.90023                                                                
C10  38022919.38123   6331367.19323     -2975.69923        20.30023                                                                
E31  27177437.95123   2869081.64723     -5953.41923        21.20023                                                                
> 2024 12 29 08 50 01.9999999  0 27                      
G05  22709596.47427    163602.72927     -4775.30827        47.10027                                                                
G22  20348783.63007   2896713.13507     -2980.73807        43.50007                                                                
G20  23402096.06606   3904436.94306     -5949.76306        41.40006                                                                
G17  22125220.62806    355494.77406      -881.58906        39.60006                                                                
G15  23307509.44724   7177150.85924        13.84624        28.10024                                                                
G19  24109968.41624   6166045.05224       -46.16324        26.00024                                                                
G30  21406118.65224      4972.43424     -4253.96524        27.50024  21406116.25422   4715117.30222     -3178.16622        16.30022
G14  20236355.16324     92403.55724     -4023.98824        26.00024  20236350.06624     72683.74524     -3011.33724        28.70024
G07  23511767.64224   3742306.14724     -5077.98824        23.70024                                                                
G13  20911292.01423   5985791.63723     -1217.39423        22.40023                                                                
E25  24153918.29007    598311.70707     -1848.13607        47.30007  24153929.98226   2538069.34526     -1379.31326        36.90026
R09  21685981.80707-116028592.44507     -1376.61207        46.30007
E16  23290115.18907     94902.27607     -3036.98007        46.10007                                                                
R05  20694372.98407-110850181.79607     -6805.53807        42.20007
E09  25517499.70316   4329754.83016     -5404.91216        41.20016  25517514.09326   3241253.31426     -4036.96726        40.40026
E05  21804525.44116   7279313.99816     -3053.48616        36.40016  21804534.13525   5443838.16725     -2276.35225        29.80025
C33  25180735.93926   4047696.13526     -6641.56826        38.40026                                                                
C37  26409241.66216    508597.57416     -1098.57216        38.00016  26409254.85316   2611376.94616      -828.63516        37.80016
R07  23038851.33526-123555992.34226       639.25526        38.60026
C23  22779274.23715    236412.04715     -2467.91715        34.50015  22779269.74024   4943073.07024     -1859.72324        28.80024
R16  19884998.40224-106448830.29724     -4346.28124        27.70024
C25  22331189.13924   5991177.84224     -4641.45124        25.90024                                                                
R15  22395976.38824-119904125.18224     -6446.64524        25.00024
C10  38022829.44323   6328385.78123     -2984.25923        20.40023                                                                
C34  25068586.57923   3817474.51723     -1723.48723        21.70023                                                                
E31  27177902.33023   2863127.17323     -5955.70323        21.10023                                                                
C32  23842017.81524   6914631.48224     -1596.50024        23.90024                                                                
> 2024 12 29 08 50 02.9999998  0 27                      
G05  22709877.67917    158825.66717     -4778.67417        47.00017                                                                
G22  20348730.26707   2893730.72807     -2984.12807        43.40007                                                                
G20  23402605.71307   3898486.54207     -5951.15607        41.60007                                                                
G17  22124763.44516    354611.45916      -884.82016        39.70016                                                                
G19  24109355.94024   6165998.13324       -49.82624        28.00024                                                                
G14  20236479.57725     88372.66825     -4036.64525        29.50025  20236490.66924     69673.36624     -3012.44024        28.50024
G15  23306895.17224   7177158.39924         3.62124        28.00024                                                                
G07  23512115.40124   3737222.67924     -5087.99824        23.60024                                                                
G13  20910905.58123   5984568.04723     -1227.95323        22.40023                                                                
G30  21406291.03324       712.93024     -4264.45824        27.20024  21406306.32323   4711933.44323     -3186.81523        18.40023
R05  20695022.63407-110856982.16707     -6808.75907        45.90007
C33  25181385.59017   4041054.08917     -6643.18417        45.40017                                                                
E25  24153641.58207    596464.35807     -1847.98207        47.20007  24153659.86916   2536689.02116     -1381.43216        37.80016
R09  21685598.67207-116029871.47707     -1379.18707        46.20007
E16  23290068.72107     91863.98707     -3039.70107        45.80007                                                                
E05  21804479.87306   7276260.82206     -3053.17006        40.70006  21804492.76425   5441560.37425     -2277.78925        33.20025
E09  25517899.92506   4324347.89406     -5408.68206        41.10006  25517921.21126   3237214.88926     -4040.19826        40.00026
C37  26408822.25306    507498.24306     -1100.43106        38.00006  26408842.63906   2610548.28306      -829.31606        37.60006
C23  22779119.54416    233945.19516     -2467.81716        35.90016  22779122.84125   4941212.53725     -1862.36425        33.90025
R07  23038103.95326-123555324.44526       629.74526        37.80026
R16  19885201.36224-106453241.97324     -4345.68124        27.50024
C32  23841701.83324   6913025.21424     -1611.14724        24.30024                                                                
R15  22396565.78024-119910602.03824     -6447.50924        24.70024
C34  25068285.88723   3815742.20923     -1736.12623        21.50023                                                                
C10  38022779.67723   6325397.56823     -2991.60723        20.40023                                                                
E31  27178432.66323   2857165.13523     -5965.80923        20.90023                                                                
E03  25808387.42523   7359115.24123      -994.89423        20.80023                                                                
> 2024 12 29 08 50 04.0000000  0 28                      
G05  22710184.36707    154045.84607     -4781.19107        47.00007                                                                
G22  20348684.09907   2890745.07407     -2987.27107        43.30007                                                                
G20  23403129.45107   3892532.76207     -5955.45607        41.70007                                                                
G17  22124325.14816    353724.58816      -888.64716        39.70016                                                                
G14  20236634.27016     84339.58516     -4034.17116        36.30016  20236642.96425     66660.19425     -3014.56325        33.80025
G19  24108763.25125   6165949.02225       -50.20725        33.60025                                                                
G15  23306285.39424   7177168.50724        11.39224        28.00024                                                                
G30  21406490.09524     -3547.95924     -4261.57224        27.00024  21406512.58023   4708756.18223     -3173.95523        18.40023
G07  23512464.06024   3732137.50624     -5086.01524        23.50024                                                                
G13  20910528.14323   5983339.33823     -1231.26523        22.40023                                                                
E25  24153388.55707    594613.84807     -1852.08607        47.20007  24153401.74806   2535306.11006     -1384.20306        38.50006
R05  20695680.97807-110863768.00707     -6809.08207        47.00007
R09  21685262.00607-116031335.41407     -1382.30407        46.10007
E16  23290040.24107     88822.24307     -3043.46507        45.60007                                                                
C33  25182046.93227   4034409.12827     -6646.40227        45.90027                                                                
E05  21804451.69207   7273204.33907     -3058.12907        42.90007  21804463.68426   5439277.61426     -2285.23826        36.60026
E09  25518319.03506   4318939.45606     -5409.92706        41.10006  25518335.82416   3233177.11316     -4037.44416        39.90016
C37  26408440.01706    506395.50706     -1104.43706        38.60006  26408444.21406   2609717.15906      -832.35306        37.50006
C23  22778982.23906    231474.95806     -2471.92406        37.70006  22778986.73626   4939350.89326     -1862.19626        39.30026
R07  23037373.95816-123554687.18716       629.24316        37.00016
E24  23911096.29224   7561078.73824     -4389.29524        25.80024                                                                
R16  19885402.22324-106457578.75224     -4343.47724        27.30024
C32  23841393.94624   6911418.34724     -1607.16324        24.70024  23841391.84823   5216153.75923     -1201.06923        19.70023
R15  22397150.97524-119916994.02524     -6445.53024        24.50024
E03  25807953.02623   7358116.69023      -998.54923        21.00023                                                                
C34  25068015.47423   3814004.12123     -1740.97523        21.30023                                                                
E31  27178942.31023   2851199.69723     -5967.12423        20.70023                                                                
C10  38022754.79523   6322407.41823     -2991.11223        20.30023                                                                
> 2024 12 29 08 50 04.9999998  0 28                      
G05  22710386.72627    149263.03127     -4784.30127        46.90027                                                                
G22  20348554.88907   2887757.17707     -2989.01207        43.30007                                                                
G20  23403565.64927   3886575.09127     -5959.60527        41.70027                                                                
G17  22123784.92206    352839.44406      -884.27706        40.30006                                                                
G14  20236698.42506     80303.74706     -4037.20706        37.70006  20236711.01615     63646.81815     -3013.47115        33.40015
G19  24108071.33025   6165903.36525       -43.92925        33.20025                                                                
G15  23305594.67324   7177174.46724         3.88624        27.90024                                                                
G30  21406602.51724     -7806.48524     -4257.33524        26.70024  21406618.10723   4705578.59523     -3177.74423        18.60023
G13  20910048.47523   5982109.56123     -1230.30923        22.90023                                                                
G07  23512741.66823   3727055.59223     -5080.27423        23.40023                                                                
E25  24153033.90327    592759.90227     -1856.41127        47.00027  24153053.38916   2533922.55116     -1383.87916        38.20016
C23  22778757.99407    229002.57307     -2473.45507        44.50007  22778759.49326   4937488.12926     -1863.32026        39.00026
R05  20696255.68007-110870587.50207     -6812.61807        46.80007
R09  21684818.61207-116032711.48707     -1385.17507        46.00007
E16  23289911.63007     85777.57807     -3045.36907        45.40007                                                                
C33  25182627.03027   4027762.05827     -6648.11227        45.60027                                                                
E05  21804332.07507   7270144.89107     -3060.17407        43.00007  21804344.96626   5436993.84726     -2284.26626        39.60026
E09  25518648.50706   4313530.86406     -5408.40906        41.00006  25518664.09607   3229138.48107     -4039.05107        42.30007
C37  26407937.56516    505290.04616     -1106.82116        38.60016  26407956.15216   2608883.82616      -834.43516        37.30016
R07  23036551.92726-123554038.44126       628.98426        36.40026
E24  23911231.19924   7556686.22624     -4392.50324        28.30024  23911237.79524   5651150.81624     -3275.50024        26.00024
R16  19885473.87324-106461705.34424     -4349.82424        27.20024
C32  23840996.72124   6909813.38824     -1604.00324        25.20024                                                                
R15  22397660.02324-119923460.17724     -6436.38424        24.30024
E03  25807449.37523   7357120.38923      -995.17423        21.90023                                                                
E31  27179373.41123   2845237.98123     -5959.84323        20.60023                                                                
C10  38022586.61123   6319419.55123     -2986.71923        20.20023                                                                
C34  25067656.92223   3812255.18023     -1754.36423        21.10023                                                                
> 2024 12 29 08 50 05.9999999  0 29                      
G05  22710713.80027    144478.25627     -4785.74627        46.80027                                                                
G22  20348531.50507   2884765.94807     -2992.88807        43.20007                                                                
G20  23404111.27127   3880611.42227     -5966.65527        41.60027                                                                
G17  22123362.51516    351950.43716      -890.93716        40.90016                                                                
G14  20236876.20206     76265.62206     -4039.26006        37.70006  20236886.09505     60631.34005     -3016.52305        33.30005
G19  24107481.93825   6165855.88625       -48.39125        32.80025                                                                
G15  23304983.69624   7177179.86824         5.12124        28.10024                                                                
G13  20909679.43024   5980876.92424     -1234.06424        23.90024                                                                
G30  21406832.45824    -12066.05524     -4260.08424        26.50024  21406841.45223   4702400.31623     -3178.61723        19.30023
G07  23513110.11323   3721973.21923     -5082.59223        23.30023                                                                
R05  20696936.50907-110877394.75607     -6810.52207        46.70007
E25  24152799.76527    590905.05627     -1855.04127        46.80027  24152812.65606   2532537.10606     -1386.38506        39.10006
R09  21684507.42807-116034213.62407     -1384.77507        45.90007
C23  22778638.07707    226527.35407     -2476.62907        46.10007  22778641.37516   4935622.56116     -1866.96616        38.10016
E16  23289903.53507     82731.07407     -3047.66807        45.30007                                                                
E05  21804323.68107   7267083.32107     -3062.87507        43.00007  21804334.47316   5434707.58516     -2287.50416        39.90016
C33  25183308.45827   4021114.79327     -6647.34827        45.20027                                                                
E09  25519086.80426   4308118.46126     -5413.54626        41.00026  25519100.89407   3225098.56607     -4040.54807        41.70007
C37  26407555.03026    504181.44326     -1110.17126        38.60026  26407576.61526   2608048.57626      -836.20726        37.00026
E24  23911471.63325   7552291.53625     -4395.76925        32.20025  23911480.32725   5647872.85125     -3277.95725        32.80025
R07  23035853.71016-123553473.17916       622.83416        35.80016
C25  22332220.72524   7662865.09024     -4652.39724        27.00024                                                                
R16  19885701.11624-106466084.15824     -4350.16124        27.20024
R15  22398310.27224-119930102.95124     -6439.79824        24.20024
C34  25067390.70723   3810494.82623     -1766.05723        21.00023                                                                
C10  38022565.62623   6316432.47623     -2986.67223        20.10023                                                                
E31  27179917.53523   2839278.02923     -5959.05723        20.50023                                                                
E03  25807040.75723   7356125.95623      -993.49623        21.90023                                                                
C32  23840705.32324   6908205.75624     -1608.96424        25.60024                                                                
> 2024 12 29 08 50 06.9999999  0 30                      
G05  22710980.01617    139694.81717     -4782.76017        46.70017                                                                
G22  20348459.25507   2881775.76007     -2988.91207        43.10007                                                                
G20  23404591.23927   3874650.34827     -5959.76427        41.50027                                                                
G17  22122895.73816    351059.76416      -891.50416        40.90016                                                                
G14  20237003.31406     72227.15606     -4037.87906        38.60006  20237013.80705     57615.77505     -3015.60305        34.30005
G13  20909263.31825   5979646.26725     -1229.66525        31.70025                                                                
G19  24106859.26925   6165805.55725       -51.75425        32.40025                                                                
G15  23304326.25124   7177181.32324        -0.51824        28.10024                                                                
G07  23513422.19723   3716893.08623     -5079.00323        23.20023                                                                
G30  21407007.83724    -16324.17624     -4257.38724        26.30024  21406996.14524   4699219.74624     -3181.70924        24.70024
R05  20697575.66727-110884239.49427     -6814.01527        46.60027
R09  21684115.00007-116035543.84807     -1385.35207        45.80007
E24  23911662.60016   7547896.58416     -4395.07416        38.10016  23911676.99015   5644590.73215     -3284.19015        32.90015
E16  23289838.48007     79685.48507     -3045.12407        45.10007                                                                
C23  22778471.39207    224053.30007     -2473.46707        45.80007  22778477.38826   4933757.94526     -1864.13626        37.10026
E05  21804261.02407   7264022.53007     -3060.39507        42.90007  21804275.41406   5432421.89306     -2285.40306        39.90006
C33  25183947.31617   4014465.17517     -6650.78117        44.80017                                                                
E25  24152512.26417    589050.79117     -1853.22117        46.40017  24152524.85507   2531152.79707     -1383.73807        41.90007
E09  25519477.13416   4302705.32416     -5414.49416        40.90016  25519488.82606   3221059.10206     -4039.23006        41.30006
C37  26407137.11926    503072.78526     -1108.68426        38.50026  26407145.51426   2607215.61626      -831.81426        36.10026
C10  38022487.08024   6313448.37324     -2982.61224        27.00024                                                                
R06  19747623.60525-105620510.68525     -2032.73225        32.60025
R07  23035106.62825-123552907.91825       631.43325        35.20025
R16  19885860.90524-106470363.61224     -4349.46624        27.50024
C32  23840365.05924   6906597.10624     -1609.15524        25.90024  23840400.13423   5753286.43723     -1211.66423        23.20023
C25  22332471.35224   7658218.20924     -4646.87124        26.80024                                                                
R15  22398851.09824-119936418.47824     -6442.43324        24.30024
E31  27180411.59323   2833320.82923     -5955.81323        20.50023                                                                
C34  25067066.93123   3808730.91223     -1765.69023        20.90023                                                                
E03  25806587.47123   7355135.58623      -988.33723        22.30023                                                                
> 2024 12 29 08 50 08.0000000  0 30                      
G14  20237161.60507     68190.96607     -4035.29307        42.50007  20237171.19806     54601.95606     -3012.93906        35.50006
G22  20348416.08507   2878788.13707     -2986.58407        43.10007                                                                
G20  23405120.67226   3868693.72226     -5954.38826        41.40026                                                                
G17  22122452.34526    350171.87726      -886.49326        40.90026                                                                
G05  22711278.60927    134910.45727     -4784.81027        45.50027                                                                
G30  21407192.50924    -20580.68124     -4255.68924        28.10024  21407195.80724   4696038.16224     -3182.08424        24.40024
G19  24106249.79125   6165755.40225       -50.06825        32.00025                                                                
G15  23303708.37824   7177186.69624         7.33324        28.20024                                                                
G07  23513774.45323   3711816.81623     -5074.32623        23.20023                                                                
G13  20908878.68425   5978415.27625     -1231.15525        33.60025                                                                
R05  20698231.31327-110891010.79627     -6813.74727        46.50027
R09  21683760.94507-116036914.56307     -1380.58807        45.60007
E16  23289811.19907     76642.05807     -3042.34107        44.90007                                                                
E24  23911894.04007   7543503.53007     -4392.09407        43.80007  23911902.43405   5641310.18305     -3279.75805        34.60005
C23  22778337.38507    221581.52807     -2470.62507        45.40007  22778341.28226   4931896.31526     -1860.13426        36.20026
E05  21804236.44107   7260963.88607     -3057.56407        42.90007  21804246.63406   5430137.89306     -2283.15006        39.60006
E25  24152252.04407    587196.95407     -1853.87007        45.80007  24152265.23507   2529770.46407     -1381.34207        42.20007
E09  25519893.24626   4297293.90726     -5409.54526        40.80026  25519907.63606   3217021.37806     -4036.84506        40.90006
C10  38022447.20816   6310465.60816     -2982.08916        37.70016                                                                
C32  23840058.97126   6904986.89926     -1610.98226        35.70026  23840068.86424   5752076.01724     -1210.41824        25.00024
C37  26406741.69326    501965.35626     -1106.81126        38.30026  26406748.88826   2606383.98526      -830.96526        35.90026
R16  19886066.26326-106474724.84526     -4349.16426        35.70026
C33  25184615.25427   4007818.46127     -6645.24727        43.00027                                                                
R06  19747387.06825-105622509.58125     -2029.07925        33.60025
R07  23034349.65225-123552125.13125       633.68725        34.60025
R15  22399450.98324-119942889.21824     -6435.92424        25.40024
C25  22332742.96424   7653570.99024     -4647.37824        26.80024                                                                
E03  25806153.37223   7354151.43423      -981.04123        22.60023  25806166.56323   5499217.48323      -742.32323        18.80023
C34  25066800.71523   3806972.18223     -1756.13323        20.80023                                                                
E31  27180929.33423   2827370.95523     -5946.19823        20.50023                                                                
> 2024 12 29 08 50 09.0000001  0 30                      
G14  20237333.68507     64162.60007     -4024.44607        45.90007  20237345.37706     51593.59206     -3005.62906        36.30006
G30  21407403.56317    -24833.78617     -4251.39517        42.40017  21407412.25724   4692862.59924     -3172.54624        26.30024
G22  20348390.30307   2875808.10807     -2976.22607        43.00007                                                                
G05  22711593.69117    130135.80217     -4769.79417        45.00017                                                                
G20  23405648.00726   3862749.55826     -5937.92026        41.30026                                                                
G17  22122026.04026    349290.93126      -877.47226        40.80026                                                                
G13  20908519.83316   5977191.59216     -1220.02816        37.00016                                                                
G19  24105670.29225   6165711.84325       -40.26225        31.60025                                                                
G07  23514149.79323   3706750.37423     -5061.51823        23.20023                                                                
G15  23303090.20624   7177200.91324        18.63824        28.30024                                                                
R05  20698919.33627-110897855.51827     -6803.51627        46.30027
R09  21683431.47307-116038321.18707     -1370.00707        45.50007
E16  23289797.10907     73606.50707     -3031.60607        44.70007                                                                
E25  24152011.91007    585354.61607     -1837.33307        45.30007  24152023.90207   2528394.13007     -1373.33207        41.80007
C23  22778216.56907    219117.79707     -2459.70407        44.90007  22778218.96726   4930039.71326     -1854.08426        35.80026
E24  23912132.07507   7539118.13007     -4381.56507        43.60007  23912143.16805   5638035.49005     -3271.75805        33.90005
E05  21804225.64907   7257913.01607     -3046.97707        42.80007  21804234.34306   5427859.55206     -2275.50506        39.30006
E09  25520330.94316   4291890.43616     -5399.73616        40.70016  25520342.63416   3212989.45416     -4029.01616        40.50016
C10  38022427.42106   6307490.20406     -2971.71806        39.00006                                                                
R16  19886286.01116-106479063.90816     -4338.05416        38.20016
C25  22333037.06025   7648926.22725     -4643.52425        31.80025                                                                
C32  23839777.76526   6903386.19626     -1595.94726        37.50026  23839797.85124   5750875.48124     -1195.59124        24.80024
C37  26406360.95726    500871.72926     -1086.72426        38.20026  26406364.85425   2605559.02425      -821.62525        35.30025
C33  25185296.68227   4001178.50527     -6636.56227        42.00027                                                                
R15  22400061.96015-119949320.96115     -6423.03715        34.50015
R06  19747178.71315-105624560.39515     -2017.08515        33.90015
R07  23033658.63025-123551599.69725       652.60225        34.10025
E03  25805735.46123   7353177.77523      -968.41023        22.80023  25805758.84523   5498482.83623      -730.80723        19.00023
C34  25066546.79123   3805225.16323     -1741.16023        20.80023                                                                
E31  27181451.87223   2821431.82223     -5933.75023        20.50023                                                                
> 2024 12 29 08 50 09.9999999  0 29                      
G30  21407509.39007    -29087.41707     -4253.88607        46.00007  21407518.38325   4689688.05925     -3174.02125        33.00025
G14  20237399.94007     60133.08007     -4030.08907        46.10007  20237411.63106     48584.67906     -3009.18106        36.30006
G22  20348255.69607   2872827.22007     -2981.31107        42.90007                                                                
G05  22711799.34827    125358.91827     -4777.98727        44.50027                                                                
G17  22121501.10326    348408.78626      -882.74326        40.80026                                                                
G20  23406083.00626   3856805.64526     -5943.77626        41.20026                                                                
G19  24104978.97025   6165668.66325       -42.99125        31.60025                                                                
G13  20908049.15906   5975967.96706     -1223.59306        38.10006                                                                
G15  23302398.58524   7177215.55724        14.85824        28.30024                                                                
R05  20699493.43927-110904671.20127     -6809.21927        46.10027
E16  23289671.49607     70570.34807     -3036.45707        44.50007                                                                
E25  24151659.35407    583510.49807     -1844.75407        44.90007  24151673.74407   2527017.11607     -1377.35107        42.40007
E05  21804102.73407   7254861.44807     -3051.90907        42.80007  21804114.72506   5425580.70406     -2279.09806        38.90006
C23  22777992.92407    216653.45407     -2464.64507        44.50007  22777992.32425   4928182.57925     -1857.39625        35.40025
E24  23912272.97807   7534732.16907     -4386.23107        43.40007  23912277.77525   5634760.69725     -3274.83625        33.70025
C25  22333227.42816   7644279.44716     -4647.78016        40.30016  22333234.92324   5768800.93124     -3500.96024        24.70024
E09  25520658.61626   4286484.83726     -5406.65126        40.70026  25520670.00826   3208956.78326     -4033.03526        40.10026
R16  19886390.63806-106483367.82606     -4342.95506        40.10006
C10  38022296.11206   6304514.20206     -2976.29406        39.80006                                                                
C32  23839385.03716   6901784.88016     -1601.62016        37.90016  23839406.02324   5749674.93224     -1200.55424        24.70024
C37  26405865.40026    499775.06726     -1098.17726        37.90026  26405874.99325   2604734.41425      -824.43225        35.10025
R15  22400559.31506-119955724.42106     -6428.67406        35.90006
C33  25185869.28626   3994540.11026     -6637.60226        40.90026                                                                
R09  21682979.98507-116039652.18307     -1376.73707        45.00007
R06  19746868.12825-105626643.27925     -2021.22325        33.90025
R07  23032806.92025-123550791.63525       643.39125        33.70025
E03  25805205.72823   7352204.65723      -972.84623        23.10023  25805239.60424   5497751.97424      -728.96924        23.80024
E31  27181898.26323   2815494.29723     -5936.70823        20.70023                                                                
C34  25066187.34023   3803483.50523     -1738.97523        20.90023                                                                
> 2024 12 29 08 50 10.9999999  0 29                      
G14  20237545.33907     56096.37907     -4040.28307        46.00007  20237557.03106     45570.21506     -3017.23406        36.50006
G30  21407696.46007    -33348.23807     -4264.40707        45.80007  21407708.75215   4686506.23115     -3185.46515        32.60015
G22  20348203.23207   2869838.74507     -2992.26307        42.80007                                                                
G05  22712080.55427    120577.26627     -4784.02727        44.00027                                                                
G17  22121047.51726    347518.54726      -894.28526        40.80026                                                                
G20  23406596.25126   3850850.43726     -5960.84326        41.10026                                                                
G19  24104365.29526   6165619.01226       -52.88626        36.70026                                                                
G15  23301790.60624   7177224.40224         5.94524        28.20024                                                                
G13  20907662.12706   5974736.40806     -1235.52306        39.00006                                                                
R05  20700146.08727-110911489.93527     -6822.18327        46.00027
E16  23289628.92507     67526.61107     -3047.51907        44.30007                                                                
E25  24151392.23907    581659.47807     -1854.46807        44.50007  24151403.33107   2525634.87307     -1384.85507        42.10007
E05  21804061.36207   7251802.35207     -3062.85507        42.70007  21804073.05406   5423296.39006     -2287.04106        38.30006
C23  22777843.62707    214182.10507     -2474.84607        44.20007  22777843.92715   4926320.10515     -1865.14015        35.40015
E24  23912478.33607   7530338.59107     -4397.37907        43.10007  23912490.92725   5631479.16025     -3284.90325        33.10025
R16  19886590.60006-106487761.16806     -4353.75606        41.00006
C25  22333502.03807   7639625.52607     -4657.48107        41.50007  22333505.93625   5765295.24625     -3505.67725        32.30025
E09  25521061.53726   4281073.88526     -5413.61726        40.60026  25521076.52626   3204918.01226     -4041.81426        39.20026
C10  38022244.54806   6301531.26306     -2986.40106        39.90006                                                                
C32  23839077.75026   6900177.93426     -1609.75726        38.00026  23839081.34724   5748466.31324     -1212.65124        26.20024
C37  26405451.98626    498670.70926     -1108.20326        37.70026  26405463.07825   2603903.43425      -834.16425        34.50025
R15  22401142.11206-119962166.87206     -6439.59606        36.00006
C33  25186528.52926   3987891.66526     -6653.45626        40.10026                                                                
R09  21682599.84827-116040947.26627     -1385.12727        43.50027
R06  19746619.00015-105628636.83215     -2034.89315        33.80015
R07  23032075.42625-123550208.75825       632.29025        33.40025
E03  25804763.83424   7351215.25724      -997.53924        28.50024  25804807.00423   5497013.90223      -741.67523        23.40023
C34  25065897.74023   3801734.33323     -1752.92423        21.70023                                                                
E31  27182398.61723   2809543.78723     -5956.99123        21.60023                                                                
> 2024 12 29 08 50 12.0000000  0 30                      
G14  20237704.82807     52049.75707     -4051.57407        45.90007  20237716.52006     42548.47006     -3025.37906        36.90006
G30  21407899.42007    -37618.51707     -4274.99807        45.50007  21407910.51205   4683317.40505     -3192.31905        32.60005
G22  20348159.46207   2866840.47107     -3003.16607        42.70007                                                                
G05  22712389.04027    115785.00027     -4797.56327        43.50027                                                                
G17  22120601.12626    346618.72626      -904.61026        40.70026                                                                
G20  23407125.38416   3844885.11516     -5970.36716        40.90016                                                                
G13  20907286.48706   5973495.18906     -1246.04606        39.50006                                                                
G19  24103770.20726   6165561.87626       -60.87926        36.20026                                                                
G15  23301186.22424   7177222.80024        -6.82524        28.50024                                                                
G07  23515144.80423   3691550.98323     -5085.12823        23.20023                                                                
R05  20700804.73127-110918275.78027     -6827.33827        45.80027
E16  23289595.34907     64473.27307     -3058.13207        44.10007                                                                
E25  24151129.62107    579798.83507     -1865.44907        44.20007  24151146.40907   2524245.42507     -1393.04707        42.00007
E05  21804032.28307   7248733.81907     -3073.24507        42.60007  21804046.67306   5421004.91306     -2295.05406        38.00006
C23  22777709.02007    211701.58107     -2485.10707        43.90007  22777709.92025   4924449.94325     -1874.00325        35.00025
R16  19886795.65807-106492121.64607     -4364.74707        41.60007
E24  23912711.27407   7525935.63307     -4407.63807        42.90007  23912719.96825   5628190.98525     -3291.48625        32.90025
C25  22333787.44126   7634963.54226     -4666.00526        41.40026  22333791.63825   5761780.45725     -3519.33425        31.70025
E09  25521480.04726   4275657.19226     -5419.55226        40.50026  25521495.33616   3200873.04916     -4048.04916        38.40016
C10  38022209.77206   6298538.78106     -2997.24806        39.90006                                                                
C32  23838775.85926   6898560.59926     -1622.52626        37.90026  23838780.95524   5747244.87324     -1227.84824        26.00024
R09  21682276.97227-116042486.08427     -1399.68127        42.40027
C37  26405056.26026    497557.05926     -1118.29426        37.50026  26405065.85325   2603065.64425      -841.19225        34.40025
R15  22401733.90206-119968594.03406     -6449.73706        36.40006
C33  25187191.37016   3981234.94316     -6660.84616        39.30016                                                                
R06  19746392.05725-105630685.35925     -2044.23525        33.70025
R07  23031335.23825-123549517.88725       621.39325        33.20025
E03  25804365.11025   7350216.03325     -1004.13425        31.10025  25804386.99523   5496264.36523      -755.26723        23.20023
C34  25065617.13423   3799971.77023     -1769.25523        22.10023                                                                
E31  27182921.15523   2803583.26823     -5965.51023        21.90023                                                                
> 2024 12 29 08 50 13.0000001  0 30                      
G14  20237883.50507     47994.61007     -4059.40007        45.90007  20237895.19706     39520.08506     -3031.69806        37.20006
G30  21408118.86807    -41897.45607     -4282.51007        45.30007  21408132.05905   4680122.37605     -3198.12205        32.80005
G22  20348136.07907   2863833.27107     -3011.65707        42.60007                                                                
G05  22712712.81617    110984.16217     -4805.11317        43.10017                                                                
G17  22120182.61626    345711.35426      -911.14526        40.60026                                                                
G13  20906930.93306   5972245.09706     -1254.52606        39.50006                                                                
G19  24103193.40626   6165496.04526       -70.17826        35.70026                                                                
G20  23407672.20626   3838912.03626     -5976.94326        39.60026                                                                
G15  23300586.04024   7177210.57624       -17.53524        29.10024                                                                
G07  23515514.14824   3686459.62124     -5091.35124        23.70024                                                                
R05  20701495.45317-110925137.34517     -6840.66417        45.60017
E16  23289586.35507     61411.31407     -3066.26407        43.90007                                                                
E25  24150899.68007    577928.97707     -1874.46307        44.00007  24150908.97407   2522849.18807     -1399.62807        43.40007
E05  21804026.88607   7245656.56707     -3081.60407        42.60007  21804038.87806   5418706.95806     -2301.19006        37.60006
C23  22777589.10307    209212.26307     -2493.71007        43.60007  22777595.99815   4922573.71115     -1879.26215        34.70015
R16  19887013.30707-106496450.01807     -4372.62707        41.80007
E24  23912953.50707   7521524.20807     -4415.64907        42.70007  23912966.09825   5624897.05825     -3296.79625        31.70025
C25  22334089.93126   7630292.62326     -4675.37726        41.30026  22334095.92725   5758260.07725     -3523.16625        32.70025
E09  25521918.34426   4270232.40126     -5428.82826        40.40026  25521934.23326   3196820.32626     -4056.59526        38.00026
C10  38022191.48506   6295538.14706     -3004.70406        39.80006                                                                
R09  21681940.60517-116043854.51417     -1405.00217        41.80017
C32  23838486.55926   6896936.50626     -1627.46926        37.90026  23838500.64924   5746013.22124     -1236.75424        25.80024
C34  25065356.31524   3798198.14924     -1779.14724        29.10024                                                                
C37  26404665.33126    496435.13526     -1126.05926        37.30026  26404687.21525   2602221.97225      -846.61125        35.40025
C33  25187880.59316   3974568.50716     -6671.27916        38.70016                                                                
R15  22402362.26726-119975119.06226     -6460.36226        36.30026
R06  19746171.71015-105632672.80215     -2054.49015        33.60015
E03  25803945.40025   7349206.18225     -1015.16125        31.90025  25803985.57323   5495509.19623      -757.98423        23.10023
R07  23030652.61125-123549036.11325       610.45125        33.00025
E31  27183479.06923   2797612.46523     -5975.93323        22.00023                                                                
> 2024 12 29 08 50 13.9999999  0 30                      
G14  20237956.65407     43936.50207     -4059.58107        45.80007  20237966.24816     36489.91516     -3031.05616        37.10016
G30  21408233.38807    -46178.20407     -4281.89407        45.10007  21408245.98005   4676925.68005     -3197.52405        33.50005
G22  20348007.76707   2860823.04407     -3011.73507        42.50007                                                                
G05  22712927.76707    106180.30507     -4805.35707        42.90007                                                                
G17  22119655.28126    344799.95026      -913.41826        40.50026                                                                
G13  20906470.45206   5970992.40106     -1253.99506        39.80006                                                                
G19  24102505.68325   6165428.66225       -68.15725        35.30025                                                                
G20  23408104.50626   3832936.32526     -5977.01526        38.40026                                                                
G15  23299880.92824   7177196.04424       -15.68624        29.10024                                                                
G07  23515785.76024   3681361.65024     -5101.26424        23.80024                                                                
R05  20702054.56627-110931874.22527     -6825.68227        45.40027
E16  23289466.43807     58346.44307     -3066.32007        43.80007                                                                
E25  24150546.82407    576056.55907     -1873.69307        43.80007  24150564.51207   2521450.84007     -1399.40107        43.10007
E05  21803909.36807   7242576.54607     -3081.39907        42.50007  21803924.65706   5416406.96906     -2301.00006        37.40006
R16  19887132.32507-106500831.89007     -4372.59307        41.90007
C23  22777371.15417    206719.71117     -2494.16317        43.30017  22777373.55205   4920695.88205     -1878.62305        34.40005
E24  23913095.30907   7517110.29507     -4415.14907        42.50007  23913105.50225   5621600.37825     -3298.05025        31.60025
C25  22334284.79626   7625619.61426     -4674.04526        41.30026  22334292.59116   5754737.87416     -3523.10816        35.90016
E09  25522253.51216   4264805.08516     -5429.31816        40.20016  25522266.40326   3192767.31126     -4053.15226        37.90026
R09  21681496.91206-116045229.82106     -1405.13906        41.40006
C10  38022069.46906   6292535.45606     -3003.71306        39.70006                                                                
C32  23838096.52926   6895306.55826     -1632.87226        37.80026  23838115.41624   5744783.75424     -1228.37324        25.80024
C33  25188457.39406   3967899.85106     -6669.75206        38.30006                                                                
C37  26404187.76116    495311.51016     -1124.47416        37.10016  26404202.45125   2601375.92725      -847.23125        35.20025
R15  22402862.32116-119981537.04516     -6456.53916        36.20016
E03  25803446.24625   7348195.04825     -1011.77525        32.80025  25803457.63824   5494756.46724      -751.50624        28.80024
C34  25064999.86225   3796423.67525     -1774.89625        32.20025                                                                
R06  19745870.71805-105634807.60505     -2054.82805        33.40005
R07  23029807.79625-123548267.11525       610.61325        32.90025
E31  27183912.26923   2791635.43223     -5980.13523        22.20023                                                                
> 2024 12 29 08 50 15.0000000  0 30                      
G14  20238116.74307     39875.39507     -4062.59707        45.80007  20238128.73516     33457.29916     -3033.83116        37.00016
G30  21408436.04807    -50461.53307     -4284.61007        45.00007  21408450.13805   4673727.12205     -3199.48205        34.20005
G22  20347972.09207   2857809.57107     -3015.08807        42.40007                                                                
G05  22713226.06107    101372.69907     -4809.47007        42.60007                                                                
G17  22119210.68916    343891.09316      -907.58116        40.50016                                                                
G19  24101899.20225   6165355.94125       -75.39225        35.00025                                                                
G20  23408635.43926   3826951.61226     -5989.20026        37.40026                                                                
G15  23299264.25525   7177179.11825       -18.12325        29.60025                                                                
G07  23516140.71524   3676263.75624     -5097.84524        23.90024                                                                
G13  20906098.40906   5969736.39306     -1257.66206        39.90006                                                                
E16  23289438.55707     55278.54007     -3069.41307        43.60007                                                                
E25  24150294.39907    574180.82407     -1877.39007        43.60007  24150310.58807   2520050.15507     -1401.85007        43.10007
E05  21803888.38207   7239493.60307     -3084.39707        42.40007  21803900.97316   5414104.68316     -2303.42916        37.20016
R16  19887342.47907-106505216.82307     -4376.01807        42.00007
C23  22777236.84707    204224.37507     -2496.72307        43.10007  22777241.04425   4918816.63625     -1879.95025        34.00025
C25  22334570.19926   7620943.10426     -4678.25026        41.40026  22334577.69405   5751213.93605     -3524.79805        35.40005
E24  23913329.44707   7512693.35507     -4418.44307        42.30007  23913334.54325   5618301.48225     -3299.99725        31.10025
C33  25189126.83006   3961228.64706     -6672.46206        40.60006                                                                
R05  20702736.89317-110938787.80917     -6837.54117        44.60017
R09  21681147.95406-116046628.81406     -1407.43806        41.10006
E09  25522675.61926   4259374.08726     -5432.57826        40.10026  25522688.51016   3188712.16916     -4056.19716        37.80016
C10  38022032.29506   6289530.38106     -3006.26106        39.60006                                                                
C32  23837803.03226   6893673.01226     -1635.34226        37.70026  23837822.51924   5743556.49124     -1226.15824        26.20024
C37  26403783.64126    494186.74526     -1125.33226        37.00026  26403807.62415   2600527.10915      -850.20315        35.00015
R15  22403454.11106-119987964.20606     -6459.98806        36.10006
E03  25803020.54125   7347182.52625     -1013.21325        34.20025  25803058.91424   5494004.51924      -751.55724        28.20024
C34  25064726.15115   3794646.80115     -1778.07115        33.20015                                                                
R06  19745633.88205-105636804.21305     -2059.08305        33.30005
R07  23029105.08225-123547776.15225       613.05325        32.70025
E31  27184444.10123   2785662.38523     -5971.04223        22.70023                                                                
> 2024 12 29 08 50 16.0000001  0 31                      
G14  20238280.73007     35809.23607     -4068.67607        45.70007  20238292.72116     30420.68316     -3038.61116        36.80016
G30  21408644.70407    -54749.99907     -4291.02507        44.80007  21408655.49605   4670524.69205     -3204.35805        34.80005
G22  20347936.11707   2854791.10207     -3020.96107        42.40007                                                                
G05  22713524.95407     96560.32207     -4814.75207        42.40007                                                                
G17  22118769.69406    342978.38406      -914.63306        40.40006                                                                
G15  23298655.07725   7177154.53925       -28.40425        33.20025                                                                
G19  24101306.21315   6165277.83615       -80.79615        34.80015                                                                
G20  23409163.97326   3820961.62926     -5992.60626        36.70026                                                                
G07  23516518.75324   3671164.67524     -5099.66424        23.90024                                                                
G13  20905724.86806   5968475.68906     -1263.04806        40.00006                                                                
E16  23289418.47107     52205.83207     -3075.10307        43.50007                                                                
E25  24150043.77307    572300.71107     -1882.29807        43.50007  24150057.86307   2518646.05807     -1405.80007        42.90007
C23  22777106.13807    201724.68107     -2501.86907        42.90007  22777110.03525   4916934.62425     -1883.39125        33.90025
E05  21803867.39707   7236405.84607     -3090.15807        42.40007  21803877.59006   5411799.17806     -2307.11106        37.00006
R16  19887553.23307-106509607.10607     -4381.96707        42.00007
C25  22334860.09827   7616261.63327     -4683.94027        41.70027  22334866.99305   5747686.15505     -3529.69505        35.30005
E24  23913554.29107   7508271.58507     -4424.17507        42.10007  23913565.38325   5614998.66325     -3304.77225        30.80025
R05  20703398.23627-110945588.18227     -6847.11727        44.00027
E09  25523101.62426   4253938.08826     -5437.73626        39.90026  25523110.91806   3184653.20306     -4060.86906        37.30006
R09  21680794.19906-116048003.36106     -1416.46306        40.80006
C10  38021999.01806   6286520.13806     -3012.82106        39.50006                                                                
C33  25189801.36326   3954552.47826     -6678.63826        40.30026                                                                
C32  23837510.43516   6892034.37916     -1641.17316        37.70016  23837521.52724   5742324.73724     -1233.99724        25.90024
C37  26403392.41216    493056.38416     -1133.15716        36.90016  26403413.69705   2599675.46805      -853.05005        34.90005
R15  22404052.49706-119994428.06806     -6466.58406        36.10006
E03  25802615.82115   7346162.83315     -1022.52815        35.20015  25802639.50424   5493249.03324      -757.25324        28.10024
C07  38411207.87415    131865.48015     -3309.57215        35.10015                                                                
C34  25064453.04005   3792864.51905     -1784.98205        34.10005                                                                
R06  19745417.13205-105638908.47705     -2064.74005        33.30005
R07  23028378.98525-123547159.57525       601.41825        32.60025
E31  27184963.04223   2779690.68823     -5971.00923        22.80023                                                                
> 2024 12 29 08 50 16.9999999  0 31                      
G14  20238352.68007     31736.59807     -4075.87007        45.70007  20238366.77026     27378.95126     -3044.28326        36.70026
G30  21408761.62307    -59044.52307     -4297.54507        44.70007  21408771.51605   4667317.75105     -3209.19105        35.10005
G22  20347807.50607   2851766.07607     -3028.29907        42.30007                                                                
G05  22713753.09627     91742.26527     -4820.88827        42.20027                                                                
G17  22118241.46016    342057.46816      -925.01816        40.30016                                                                
G15  23297952.96325   7177125.26225       -31.62625        34.00025                                                                
G19  24100635.57725   6165199.31825       -78.72425        34.50025                                                                
G20  23409615.76026   3814969.02026     -5993.90926        36.10026                                                                
G07  23516749.29324   3666056.59524     -5112.56924        23.90024                                                                
G13  20905270.08326   5967208.78526     -1270.00226        40.10026                                                                
E25  24149698.11207    570413.86907     -1890.20207        43.40007  24149715.20007   2517237.11707     -1411.36007        42.80007
E16  23289299.75307     49126.71407     -3082.31807        43.40007                                                                
E05  21803748.07907   7233311.58107     -3097.51207        42.40007  21803765.46716   5409488.30216     -2313.55616        36.30016
C23  22776885.79007    199218.79507     -2508.97607        42.80007  22776890.28725   4915041.66725     -1898.42525        33.80025
R16  19887674.64907-106514000.44907     -4388.96507        42.10007
C25  22335058.86017   7611574.87517     -4689.39217        41.70017  22335066.95515   5744154.03815     -3534.27715        34.80015
E24  23913695.79307   7503843.36607     -4431.43507        42.00007  23913707.78525   5611691.57225     -3309.22025        30.70025
R05  20703987.62827-110952485.70727     -6852.54127        43.50027
C10  38021879.40106   6283504.01106     -3019.06206        39.40006                                                                
E09  25523437.99216   4248496.37116     -5445.56616        39.80016  25523446.98506   3180589.44306     -4066.14806        37.10006
R09  21680383.48316-116049552.87316     -1423.71916        40.40016
C32  23837119.50616   6890389.30016     -1648.29816        37.70016  23837143.78924   5741082.22124     -1247.89524        26.00024
C33  25190376.36526   3947872.19326     -6682.32926        39.80026                                                                
C37  26402910.94526    491921.16126     -1137.65226        36.90026  26402931.03105   2598819.20205      -858.57805        35.30005
R15  22404560.34606-120000886.57806     -6472.51006        36.00006
E03  25802109.17206   7345137.96306     -1027.70606        35.70006  25802125.36024   5492489.17424      -762.04424        28.80024
C07  38411143.11905    128551.99705     -3313.47605        35.30005                                                                
C34  25064100.78425   3791077.53125     -1789.33625        34.50025                                                                
R06  19745099.95205-105640955.47605     -2073.01705        33.20005
R07  23027565.64825-123546559.08325       595.80825        32.50025
E31  27185395.94223   2773710.81423     -5983.95023        23.10023                                                                
> 2024 12 29 08 50 18.0000001  0 31                      
G14  20238529.85707     27655.96007     -4084.62807        45.70007  20238541.84926     24333.25226     -3047.67626        36.40026
G30  21408982.27007    -63346.36407     -4305.48907        44.50007  21408990.96406   4664105.29206     -3215.21006        35.70006
G22  20347794.61517   2848732.65417     -3038.36217        42.30017                                                                
G05  22714073.57427     86916.18027     -4830.08727        42.00027                                                                
G15  23297360.27326   7177084.88726       -45.92526        35.90026                                                                
G19  24100045.58615   6165110.49115       -93.98115        34.30015                                                                
G20  23410167.67826   3808967.85126     -6005.43626        35.60026                                                                
G17  22117820.55126    341125.11026      -938.07626        39.90026                                                                
G07  23517125.53324   3660937.99324     -5123.85224        23.90024                                                                
G13  20904910.63226   5965933.47626     -1279.50726        40.10026                                                                
E25  24149465.77307    568519.01107     -1898.86207        43.30007  24149476.86507   2515822.06707     -1418.10207        42.70007
E16  23289290.16017     46039.57917     -3091.13617        43.30017                                                                
E05  21803741.18407   7230209.32107     -3106.25007        42.40007  21803755.57426   5407174.14626     -2315.79026        35.70026
R16  19887895.59607-106518383.08807     -4397.86307        42.20007
C25  22335359.85217   7606880.44617     -4698.25417        41.70017  22335368.24605   5740616.44905     -3540.31805        35.20005
C23  22776772.16917    196703.98417     -2519.26817        42.70017  22776774.56725   4913144.51025     -1899.25225        33.70025
E24  23913940.72307   7499407.50507     -4439.67207        41.90007  23913953.01525   5608376.75825     -3318.66925        32.00025
R05  20704661.86127-110959294.49327     -6864.13427        42.90027
C10  38021861.71326   6280481.07926     -3026.32826        39.30026                                                                
E09  25523867.89426   4243047.57426     -5452.07426        39.60026  25523883.48326   3176519.21626     -4073.45126        37.10026
R09  21680035.42426-116050896.09026     -1430.10926        40.10026
C32  23836841.29826   6888737.70026     -1654.85826        37.70026  23836858.38625   5739839.55725     -1242.73525        30.50025
C37  26402528.11026    490776.57726     -1149.26226        36.80026  26402550.89405   2597956.76605      -865.51905        35.30005
C33  25191066.48826   3941182.05926     -6695.04226        39.30026                                                                
E03  25801706.55016   7344106.18916     -1035.22316        36.10016  25801719.44124   5491720.12624      -773.64124        29.10024
R15  22405181.81526-120007411.60526     -6481.35626        36.00026
C07  38411179.99325    125232.47325     -3322.53825        35.40025                                                                
C34  25063848.35925   3789282.16325     -1799.55525        34.40025                                                                
R06  19744897.59205-105643075.77105     -2082.10605        33.10005
R07  23026852.14225-123545949.39825       584.43125        32.50025
E31  27185959.25223   2767719.91623     -5996.39623        23.10023                                                                
> 2024 12 29 08 50 18.9999999  0 31                      
G14  20238604.50607     23572.31807     -4085.13607        45.60007  20238620.09526     21284.37826     -3050.45526        36.30026
G30  21409100.68807    -67650.66807     -4305.52707        44.40007  21409110.58116   4660891.71816     -3214.12416        35.70016
G22  20347667.20307   2845696.24907     -3037.64107        42.20007                                                                
G13  20904455.24716   5964656.13816     -1278.35016        40.10016                                                                
G15  23296671.35026   7177043.86226       -41.34926        37.10026                                                                
G19  24099349.46825   6165017.31125       -95.35725        34.20025                                                                
G20  23410591.58525   3802960.38225     -6010.60625        35.10025                                                                
G17  22117304.90826    340193.27426      -931.57326        38.50026                                                                
G07  23517426.82424   3655816.33324     -5123.17824        24.10024                                                                
G05  22714287.92627     82086.26427     -4831.82127        41.70027                                                                
E25  24149123.71007    566621.23407     -1899.23307        43.20007  24149136.00107   2514405.06107     -1417.98107        42.90007
E16  23289169.34407     42949.61207     -3091.37507        43.20007                                                                
C25  22335562.21227   7602184.32427     -4696.95927        42.30027  22335572.40525   5737078.75925     -3537.73325        34.80025
E05  21803637.75607   7227104.36507     -3106.29907        42.30007  21803644.05126   5404861.20926     -2312.32326        35.50026
R16  19888021.20907-106522798.59107     -4398.45407        42.20007
C23  22776553.32007    194187.38807     -2517.48307        42.60007  22776555.41925   4911247.54525     -1896.86625        35.20025
E24  23914080.12707   7494968.57307     -4440.45807        41.80007  23914094.51725   5605061.58425     -3315.34625        31.80025
C10  38021742.69516   6277454.72616     -3028.05816        39.20016                                                                
E09  25524199.76416   4237594.90416     -5454.59516        39.50016  25524220.45026   3172447.51526     -4072.43026        36.80026
R09  21679617.21316-116052404.34016     -1429.12716        39.80016
C32  23836449.17026   6887084.08326     -1654.62126        37.70026  23836476.75125   5738595.37925     -1244.93325        30.00025
C37  26402053.53926    489626.99426     -1152.08026        36.80026  26402069.72705   2597092.51105      -865.16305        35.20005
E03  25801197.20326   7343072.30426     -1034.93926        36.20026  25801215.49025   5490949.53025      -771.36925        31.80025
R15  22405696.25926-120013906.04826     -6483.24926        36.00026
C33  25191666.07226   3934494.91026     -6685.64326        38.80026                                                                
C07  38411126.33125    121912.44825     -3320.26825        35.40025                                                                
R05  20705266.54227-110966274.60727     -6859.80327        42.00027
C34  25063494.30425   3787481.99025     -1802.57125        34.30025                                                                
R06  19744570.21805-105645068.56005     -2082.68005        33.00005
R07  23026028.31225-123545291.45925       581.11625        32.40025
E31  27186385.25723   2761724.73823     -5997.30723        23.10023                                                                
> 2024 12 29 08 50 20.0000000  0 30                      
G14  20238773.58907     19485.27907     -4088.72707        45.60007  20238784.38126     18236.07026     -3048.01826        35.50026
G30  21409306.04627    -71957.81327     -4309.30727        44.30027  21409319.83626   4657675.29026     -3217.84926        35.70026
G13  20904085.30306   5963375.24306     -1282.67106        40.20006                                                                
G05  22714589.51727     77253.33327     -4834.42827        41.50027                                                                
G15  23296066.66926   7177000.31226       -44.81326        37.40026                                                                
G19  24098786.15715   6164922.45415       -95.69615        34.00015                                                                
G20  23411128.81325   3796951.74725     -6009.20625        34.70025                                                                
G17  22116875.60626    339259.02026      -935.46026        37.20026                                                                
G07  23517780.27924   3650692.28124     -5125.23724        24.70024                                                                
E25  24148873.08307    564720.46907     -1902.25507        43.10007  24148887.77307   2512985.56707     -1420.73507        42.80007
C25  22335858.40717   7597487.71917     -4696.83517        42.60017  22335865.30225   5733544.13425     -3533.08525        34.40025
E16  23289151.65607     39856.18007     -3095.15807        43.10007                                                                
E05  21803613.17307   7223996.02007     -3110.03207        42.30007  21803625.76425   5402538.18625     -2328.06125        35.30025
R16  19888231.06407-106527182.75907     -4400.40607        42.20007
C23  22776426.20807    191668.17707     -2520.51307        42.50007  22776429.80625   4909348.71225     -1899.76325        35.00025
E24  23914315.76427   7490526.60127     -4443.48227        41.80027  23914331.95225   5601744.07425     -3318.67125        31.60025
C10  38021709.71806   6274425.22406     -3031.06906        39.20006                                                                
E09  25524638.96006   4232138.81006     -5457.79406        39.30006  25524645.85526   3168374.19726     -4074.11926        36.50026
R09  21679257.46226-116053746.03226     -1435.90626        39.50026
C32  23836169.16326   6885427.84626     -1657.54426        37.60026  23836173.06125   5737344.53425     -1254.17725        29.90025
E03  25800794.28226   7342035.55726     -1038.17626        36.20026  25800802.67625   5490183.95325      -763.06625        31.20025
C37  26401660.51126    488477.53926     -1149.38726        36.70026  26401680.29705   2596226.23905      -867.27805        35.40005
R15  22406294.04526-120020366.08726     -6486.79326        35.90026
C07  38411149.41515    118590.62415     -3322.71615        35.40015                                                                
C33  25192322.01826   3927804.64026     -6691.81626        38.30026                                                                
R07  23025318.10425-123544759.13525       589.04625        32.40025
R06  19744364.86105-105647233.14205     -2086.20705        32.90005
R05  20705934.48026-110973110.93726     -6873.57626        40.60026
E31  27186913.19224   2755730.70224     -5993.45124        23.70024                                                                
C34  25063228.98825   3785678.64725     -1804.92325        33.90025                                                                
> 2024 12 29 08 50 21.0000001  0 30                      
G14  20238940.87307     15392.86007     -4095.10107        45.60007  20238954.66325     15176.66725     -3064.94525        35.40025
G13  20903721.05516   5962091.41716     -1285.28816        40.30016                                                                
G30  21409519.49827    -76268.39527     -4312.04027        44.10027  21409529.99126   4654455.00526     -3222.20626        35.60026
G15  23295472.78026   7176950.23426       -53.34226        37.40026                                                                
G19  24098174.88115   6164824.99215       -98.76415        33.90015                                                                
G20  23411670.83815   3790939.41715     -6014.16415        34.40015                                                                
G17  22116446.60326    338317.59026      -945.01726        36.00026                                                                
G07  23518148.42524   3645561.29924     -5134.43524        25.20024                                                                
G05  22714908.79616     72413.70216     -4842.97116        41.30016                                                                
C25  22336150.40507   7592786.57707     -4703.40107        43.20007  22336159.99825   5729994.31825     -3557.40425        34.10025
E25  24148626.35407    562813.65707     -1909.83307        43.10007  24148638.94507   2511561.67607     -1426.08607        42.70007
E16  23289128.57207     36757.38407     -3101.47207        43.00007                                                                
E05  21803590.08907   7220882.45407     -3116.17007        42.30007  21803607.17725   5400212.75425     -2326.63125        34.90025
R16  19888443.01707-106531579.15907     -4407.82007        42.20007
C23  22776299.09627    189143.58827     -2527.27327        42.40027  22776302.39426   4907445.20226     -1905.84526        37.50026
E24  23914551.40117   7486079.51717     -4449.63017        41.70017  23914567.58925   5598425.54825     -3319.02625        31.40025
C10  38021684.53606   6271390.56706     -3037.23006        39.10006                                                                
R09  21678916.89816-116055190.10516     -1440.72916        39.40016
C32  23835881.36316   6883764.81116     -1666.43116        37.80016  23835887.95825   5736087.57225     -1260.01725        30.10025
C07  38411179.09406    115261.63706     -3332.56106        36.40006                                                                
E03  25800373.37326   7340996.34326     -1040.44626        36.20026  25800390.46125   5489410.03825      -778.08225        30.90025
R15  22406896.02926-120026846.76926     -6496.40826        35.90026
C37  26401283.37226    487319.74626     -1161.96126        36.60026  26401290.56705   2595356.04605      -872.15205        35.00005
C33  25193000.44926   3921105.97126     -6702.85426        37.90026                                                                
R07  23024584.51225-123544102.73125       575.70625        32.80025
R06  19744130.12325-105649241.20325     -2093.29125        32.80025
R05  20706620.10526-110980042.10126     -6875.35326        39.30026
E09  25525056.57126   4226675.37426     -5467.09626        38.20026                                                                
E31  27187443.22524   2749734.27924     -5997.60424        23.70024                                                                
C34  25062976.86225   3783868.48825     -1813.56325        32.40025                                                                
> 2024 12 29 08 50 21.9999999  0 30                      
G14  20239018.81907     11295.35907     -4100.03307        45.50007  20239033.50925     12117.07425     -3059.68125        35.30025
G19  24097488.35606   6164721.45906      -106.56806        38.20006                                                                
G30  21409645.11117    -80582.50017     -4315.85817        43.70017  21409651.70726   4651231.63226     -3224.91026        35.90026
G13  20903268.66806   5960801.17806     -1293.44306        40.40006                                                                
G15  23294781.45826   7176896.58526       -55.43526        37.30026                                                                
G20  23412121.42615   3784923.16715     -6018.19815        34.50015                                                                
G17  22115916.27025    337367.46525      -954.47125        34.90025                                                                
G07  23518418.53824   3640426.25424     -5137.06624        25.70024                                                                
G05  22715136.63806     67569.11606     -4847.05406        41.20006                                                                
R09  21678496.58906-116056689.19106     -1446.52706        40.10006
C25  22336355.46307   7588080.04607     -4709.21507        44.00007  22336363.55725   5726443.19825     -3551.76525        33.80025
E25  24148294.78307    560900.53707     -1916.26907        43.00007  24148301.97807   2510132.99607     -1431.07107        42.50007
E16  23289022.74507     33652.85807     -3107.38507        42.90007                                                                
E05  21803483.66207   7217763.39807     -3121.79407        42.30007  21803500.75125   5397883.28325     -2331.48625        34.80025
R16  19888572.82807-106536016.06707     -4410.68507        42.20007
C23  22776087.44317    186614.06617     -2531.98417        42.40017  22776087.74326   4905537.54526     -1909.72626        38.10026
E24  23914704.29527   7481627.98227     -4453.75127        41.60027  23914712.98925   5595099.15825     -3330.31525        32.10025
C10  38021566.71706   6268351.90606     -3040.65506        39.70006                                                                
C32  23835496.42906   6882097.24906     -1669.82206        38.80006  23835504.52425   5734829.59525     -1258.48125        30.50025
C07  38411117.03706    111927.79806     -3336.25906        37.30006                                                                
C33  25193587.14316   3914403.43016     -6704.46416        37.60016                                                                
E03  25799875.41826   7339949.71326     -1050.33626        36.20026  25799888.90925   5488630.66125      -782.10725        30.70025
R15  22407411.07216-120033345.03816     -6497.16816        35.90016
R07  23023789.76215-123543600.28015       570.81415        33.30015
R05  20707210.09726-110986941.91526     -6885.21126        38.30026
R06  19743815.64115-105651303.47315     -2098.71915        32.80015
C37  26400814.19726    486156.42226     -1166.08626        35.80026  26400812.09825   2594480.38025      -878.40025        34.90025
C09  39700922.52324   9199763.42624     -3317.04524        24.50024                                                                
E31  27187892.91324   2743731.09324     -6006.55524        23.70024                                                                
C34  25062638.99625   3782045.89325     -1828.81025        31.00025                                                                
> 2024 12 29 08 50 23.0000000  0 31                      
G14  20239192.09907      7189.68607     -4109.75107        45.50007  20239202.59225      9050.88025     -3069.48925        34.90025
G30  21409851.96817    -84906.47017     -4328.89217        43.40017  21409864.55926   4648003.91326     -3229.88526        36.10026
G05  22715446.62407     62715.95007     -4857.44507        41.50007                                                                
G13  20902902.32206   5959503.81106     -1300.92906        40.60006                                                                
G19  24096902.26226   6164609.78626      -115.74326        41.30026                                                                
G15  23294185.77116   7176834.87116       -65.74516        37.30016                                                                
G07  23518779.78825   3635283.15325     -5147.11925        33.60025                                                                
G20  23412658.95325   3778897.90625     -6029.75525        34.40025                                                                
G17  22115497.46025    336412.52025      -957.35325        33.90025                                                                
C25  22336647.46127   7583365.71427     -4718.22327        44.40027  22336658.85325   5722891.01725     -3552.70325        33.50025
R09  21678153.92607-116058121.04207     -1456.54507        43.20007
E25  24148043.85707    558980.06607     -1924.14207        43.00007  24148057.04807   2508698.96407     -1436.70507        42.40007
E16  23289006.25607     30540.81107     -3115.80007        42.90007                                                                
C23  22775966.32707    184076.83107     -2541.08507        42.30007  22775963.62826   4903624.23526     -1916.13326        39.50026
R16  19888786.28007-106540420.87307     -4422.90007        42.20007
E05  21803472.27007   7214636.55407     -3130.73107        42.30007  21803485.16125   5395548.72725     -2337.09325        34.70025
E24  23914936.63417   7477166.50617     -4465.68517        41.50017  23914952.22325   5591769.44125     -3331.37425        31.80025
C10  38021542.73406   6265305.13906     -3050.81406        40.40006                                                                
C32  23835212.22626   6880423.53126     -1676.79226        38.90026  23835215.82325   5733565.61925     -1266.97425        30.20025
C33  25194266.17206   3907692.28806     -6715.42806        37.60006                                                                
C07  38411144.91806    108584.79006     -3347.58606        37.80006                                                                
E03  25799459.60626   7338894.99526     -1058.75926        36.20026  25799479.09215   5487846.11615      -787.12615        30.60015
R15  22408007.95926-120039799.72426     -6513.34526        35.80026
R05  20707862.44526-110993695.63526     -6891.14126        37.60026
R07  23023094.24425-123543148.38025       557.93025        33.30025
R06  19743603.08825-105653429.11525     -2108.40625        32.70025
C37  26400412.47525    484986.89425     -1172.62925        34.90025  26400425.36625   2593592.99725      -893.24025        33.40025
C09  39700952.80224   9196440.20724     -3323.21224        24.90024                                                                
E31  27188430.14124   2737718.40424     -6017.42824        23.60024                                                                
C34  25062357.49125   3780217.55225     -1831.20925        29.70025                                                                
E09  25525842.62725   4215722.84425     -5487.00925        33.80025                                                                
> 2024 12 29 08 50 23.9999999  0 31                      
G14  20239283.53607      3082.26507     -4108.28607        45.50007  20239295.52725      5984.76425     -3066.07025        34.80025
G30  21409986.27507    -89230.31007     -4323.76507        43.30007  21409994.36926   4644777.06626     -3226.40426        35.90026
G05  22715677.46407     57861.84607     -4854.56307        41.80007                                                                
G13  20902459.82806   5958203.91006     -1301.16406        40.60006                                                                
G19  24096236.72226   6164498.88926      -110.50826        41.00026                                                                
G15  23293505.84126   7176776.00526       -57.44326        37.20026                                                                
G07  23519069.98725   3630136.56425     -5148.32125        33.80025                                                                
G20  23413117.93625   3772871.34325     -6027.20025        34.30025                                                                
G17  22114981.81725    335456.51025      -956.54025        33.00025                                                                
C33  25194866.65707   3900979.10407     -6714.19107        46.10007                                                                
C25  22336860.31327   7578649.87827     -4716.57627        44.50027  22336873.20425   5719339.26625     -3551.52825        32.50025
R09  21677730.91907-116059544.47907     -1454.03207        44.60007
C23  22775762.46807    181538.17707     -2539.35807        42.50007  22775760.96926   4901710.20326     -1914.38826        39.60026
E16  23288908.52407     27427.12607     -3114.49807        42.80007                                                                
R16  19888926.88207-106544855.47907     -4418.78607        42.20007
E25  24147716.78407    557058.64507     -1921.89307        42.90007  24147732.37306   2507264.02806     -1435.38506        41.20006
E05  21803377.53607   7211508.18207     -3129.13007        42.30007  21803390.42725   5393212.20425     -2337.50225        34.40025
E24  23915095.52406   7472704.89506     -4461.92006        41.40006  23915109.01525   5588441.04025     -3327.73425        32.20025
C10  38021436.30706   6262257.06006     -3048.72806        40.70006                                                                
C32  23834844.08116   6878747.14016     -1677.72416        38.90016  23834848.27825   5732300.39425     -1265.84625        30.10025
C07  38411096.95106    105240.19306     -3345.38306        37.80006                                                                
E03  25798985.03426   7337839.23026     -1056.28526        36.10026  25798990.43125   5487060.95525      -785.46925        30.50025
R15  22408545.18726-120046354.56826     -6504.13826        35.80026
R07  23022290.20025-123542535.62825       562.22525        33.20025
R05  20708469.82526-111000628.32426     -6890.49026        36.90026
R06  19743314.98725-105655570.78725     -2106.47025        32.50025
C37  26399955.89125    483817.23325     -1169.72525        33.90025  26399965.78425   2592702.69825      -891.75625        33.30025
C09  39700908.43324   9193113.91424     -3327.82324        27.80024                                                                
E31  27188865.14024   2731697.47024     -6025.04224        23.60024                                                                
C34  25062039.71124   3778388.29624     -1829.70924        28.60024                                                                
E09  25526189.78725   4210239.46425     -5483.36825        32.60025                                                                
> 2024 12 29 08 50 25.0000000  0 31                      
G14  20239454.71707     -1028.49007     -4112.41207        45.50007  20239467.90825      2913.62325     -3073.64725        34.80025
G30  21410198.52827    -93556.46427     -4327.30327        43.30027  21410209.62026   4641544.48026     -3235.44926        35.80026
G05  22715986.85007     53004.47707     -4858.99007        41.90007                                                                
G13  20902095.28106   5956900.62506     -1304.97506        40.60006                                                                
G19  24095655.72526   6164386.70526      -112.82726        40.50026                                                                
G15  23292916.74926   7176710.02226       -69.54126        37.00026                                                                
G20  23413640.77425   3766841.30625     -6031.76125        34.10025                                                                
G17  22114554.91225    334505.31225      -948.79025        32.20025                                                                
G07  23519451.92225   3624988.43625     -5148.88625        33.60025                                                                
C25  22337156.20927   7573929.99327     -4721.90127        44.70027  22337169.10025   5715786.26425     -3553.62025        32.30025
C33  25195544.78707   3894262.52507     -6718.26207        46.00007                                                                
R09  21677388.25617-116060977.09217     -1460.85717        44.40017
C23  22775640.75207    178997.01507     -2542.41007        42.90007  22775638.95316   4899795.25416     -1915.40516        39.20016
R16  19889140.33507-106549258.75907     -4422.23507        42.50007
E16  23288891.13607     24310.78007     -3117.66907        42.80007                                                                
E05  21803364.94507   7208376.80007     -3132.88107        42.30007  21803374.53825   5390874.06825     -2338.93625        34.20025
C10  38021411.12506   6259205.34606     -3053.52506        41.00006                                                                
E24  23915338.35606   7468242.12306     -4463.34306        41.30006  23915347.64925   5585109.23525     -3333.50025        31.20025
C32  23834550.58426   6877066.19126     -1683.22626        39.10026  23834559.27825   5731034.94625     -1265.55725        30.60025
C07  38411129.02926    101893.07026     -3348.38026        37.90026                                                                
R15  22409142.97326-120052813.07826     -6507.61826        35.80026
E03  25798570.42126   7336781.22626     -1059.12226        36.10026  25798571.32125   5486274.25625      -787.46525        30.40025
R07  23021566.20125-123541930.54025       565.40625        33.50025
R05  20709143.75826-111007496.77626     -6891.25426        36.30026
R06  19743100.33625-105657685.74025     -2109.01125        32.40025
C37  26399587.74625    482648.73825     -1167.90925        33.00025                                                                
C09  39700941.41024   9189793.60424     -3317.31024        27.60024                                                                
E31  27189417.05824   2725674.26524     -6024.32724        23.60024  27189431.44823   6712829.51323     -4501.15523        19.30023
C34  25061777.09324   3776560.34024     -1827.30224        27.60024                                                                
E09  25526616.69125   4204758.20525     -5480.18725        31.50025                                                                
E25                                                                  24147489.24116   2505827.07116     -1437.96516        41.10016
> 2024 12 29 08 50 26.0000001  0 30                      
G14  20239624.40007     -5144.02007     -4117.91007        45.40007  20239638.79026      -158.00026     -3071.85826        37.50026
G30  21410411.68017    -97887.41717     -4333.34317        43.40017  21410423.37226   4638305.87026     -3241.61626        36.10026
G05  22716294.43727     48141.13027     -4866.32627        41.90027                                                                
G13  20901733.13126   5955593.28226     -1309.36926        40.80026                                                                
G19  24095051.34326   6164264.61326      -127.04626        40.10026                                                                
G15  23292314.16626   7176638.66326       -74.04726        36.90026                                                                
G20  23414181.00025   3760804.61425     -6040.00625        33.70025                                                                
G17  22114131.60525    333540.78425      -971.19225        31.50025                                                                
C25  22337453.90227   7569205.70227     -4726.48327        45.00027  22337461.69725   5712222.80525     -3568.68025        31.40025
C33  25196228.01407   3887541.32107     -6723.50207        45.70007                                                                
C23  22775516.63817    176451.10917     -2548.27417        42.90017  22775516.33806   4897877.11406     -1919.73106        38.90006
R16  19889356.18507-106553675.79107     -4429.33307        42.50007
E16  23288871.65007     21189.72007     -3123.41007        42.70007                                                                
E05  21803346.95707   7205240.79307     -3138.31207        42.30007  21803360.44825   5388533.51425     -2341.75925        34.10025
R09  21677045.59427-116062411.23227     -1463.02027        44.20027
C10  38021388.64007   6256148.71507     -3059.08307        41.50007                                                                
E24  23915575.49206   7463773.05806     -4472.20106        41.30006  23915589.58225   5581769.74525     -3343.32725        31.00025
C32  23834257.68726   6875379.26426     -1689.91226        39.10026  23834272.97625   5729764.06325     -1273.59925        31.70025
C07  38411161.40626     98538.74626     -3357.91626        37.90026                                                                
R15  22409751.55226-120059331.22526     -6523.42026        36.00026
E03  25798147.41416   7335718.00416     -1066.57816        36.00016  25798167.50025   5485485.39025      -789.94825        30.60025
R07  23020835.90725-123541291.75225       552.54325        33.60025
R05  20709859.96226-111014592.38326     -6904.68526        35.70026
R06  19742903.37225-105659894.60625     -2117.91025        32.40025
C37  26399215.10425    481470.32125     -1183.37525        32.10025                                                                
C09  39700971.98924   9186474.56024     -3318.40524        27.30024                                                                
E09  25527095.46025   4199269.87725     -5491.85125        30.50025                                                                
E31  27189941.99524   2719643.60124     -6034.38224        23.50024  27189968.67623   6708327.65523     -4502.19523        19.20023
C34  25061510.57724   3774727.81424     -1834.80924        26.70024                                                                
E25                                                                  24147248.50826   2504385.96626     -1443.17626        40.90026
> 2024 12 29 08 50 27.0000000  0 30                      
G14  20239722.13207     -9266.79307     -4126.38507        45.40007  20239734.42326     -3235.11526     -3079.85526        37.10026
G30  21410547.78617   -102227.08217     -4344.01117        43.50017  21410559.17826   4635062.71926     -3245.41426        36.10026
G13  20901296.63316   5954278.02616     -1319.20916        40.80016                                                                
G19  24094386.10426   6164137.59126      -129.48726        39.60026                                                                
G05  22716534.27126     43268.46726     -4877.31126        40.80026                                                                
G20  23414633.68625   3754760.92525     -6047.17425        33.40025                                                                
G17  22113644.44325    332559.20525      -990.10125        30.80025                                                                
G07  23520115.66325   3614672.29025     -5166.34725        29.70025                                                                
G15  23291634.53716   7176557.93416       -85.41516        36.80016                                                                
C25  22337672.15117   7564473.46217     -4736.20417        45.20017  22337679.94625   5708658.61825     -3564.54225        30.60025
C33  25196828.79807   3880813.47807     -6731.14807        45.40007                                                                
C23  22775313.37927    173898.97927     -2555.23527        42.90027  22775317.57606   4895953.62006     -1926.16606        38.70006
R16  19889500.38507-106558127.98507     -4436.10807        42.50007
E16  23288777.81507     18061.17707     -3132.27707        42.60007  23288787.10825   7263185.93025     -2337.67125        33.00025
E05  21803255.22007   7202097.42407     -3147.04407        42.30007  21803269.61125   5386187.07525     -2349.37625        34.10025
C10  38021286.11107   6253085.13607     -3067.04607        42.00007                                                                
E24  23915734.68106   7459296.28206     -4480.62206        41.20006  23915749.97125   5578427.21425     -3344.04325        33.50025
C32  23833898.23616   6873686.04816     -1696.35716        39.20016  23833908.72825   5728491.02225     -1274.11625        32.60025
R07  23020045.35415-123540748.70315       545.06415        35.40015
C07  38411118.53616     95178.28116     -3363.52816        38.20016                                                                
R15  22410282.18426-120065848.60526     -6530.31126        36.40026
E03  25797661.15116   7334650.67816     -1069.12616        36.00016  25797679.73825   5484696.19825      -789.35425        31.00025
R06  19742585.29325-105661875.17725     -2128.10425        32.30025
R09  21676639.97427-116063924.84027     -1483.39727        42.50027
C37  26398732.73825    480275.57725     -1202.90425        31.30025                                                                
C09  39700908.73324   9183149.06924     -3328.70724        27.00024                                                                
E09  25527442.91925   4193771.78025     -5502.96925        29.60025                                                                
C34  25061166.41624   3772887.41524     -1844.33024        26.00024                                                                
E31  27190404.27524   2713601.44224     -6047.89224        23.50024                                                                
E25                                                                  24146930.72826   2502937.88026     -1451.57326        40.50026
> 2024 12 29 08 50 28.0000001  0 31                      
G14  20239894.21307    -13395.56007     -4131.75407        45.40007  20239906.80426     -6316.94626     -3084.18126        36.90026
G30  21410766.33507   -106571.57507     -4346.89807        43.50007  21410776.82826   4631815.96626     -3248.54726        36.00026
G13  20900939.28116   5952959.15116     -1320.68216        40.90016                                                                
G19  24093813.50016   6164004.58616      -135.99616        39.20016                                                                
G20  23415166.41825   3748713.06425     -6049.93525        33.00025                                                                
G05  22716881.43026     38385.02726     -4888.81726        38.60026                                                                
G17  22113228.33125    331572.51225      -989.24825        30.20025                                                                
G07  23520494.60024   3609502.26224     -5170.01724        28.90024                                                                
G15  23291042.74726   7176472.28526       -88.10926        36.80026                                                                
C25  22337970.74507   7559735.44807     -4740.89007        45.50007  22337979.73825   5705086.41025     -3576.21225        30.30025
C23  22775193.16217    171340.64617     -2561.42917        42.90017  22775197.65906   4894025.75106     -1930.05206        38.70006
C33  25197509.92707   3874080.65907     -6735.29307        45.00007                                                                
R16  19889715.03707-106562539.67107     -4444.29007        42.50007
E16  23288758.32807     14926.91907     -3137.10907        42.60007  23288771.21925   7260846.32425     -2339.60125        34.80025
E05  21803242.03007   7198948.21407     -3152.12307        42.30007  21803255.82015   5383835.30015     -2354.43715        33.50015
C10  38021264.82607   6250016.13907     -3071.70107        42.00007                                                                
E24  23915976.31406   7454813.88606     -4485.19706        41.20006  23915989.80525   5575084.99425     -3342.05825        33.40025
C32  23833612.83316   6871987.06816     -1701.85916        39.30016  23833623.92525   5727210.36425     -1284.46525        33.50025
C07  38411151.81306     91813.98806     -3366.20106        38.90006                                                                
R07  23019333.94706-123540213.31706       536.30406        38.80006
R15  22410893.16226-120072381.27926     -6532.21326        36.90026
E03  25797257.93016   7333577.50816     -1075.34016        36.10016  25797271.72025   5483896.62025      -804.76825        30.90025
R06  19742380.53425-105664045.10425     -2132.83625        32.30025
R09  21676309.30326-116065423.92326     -1482.64826        40.50026
R05  20711140.67625-111028389.71125     -6916.25625        31.70025
C37  26398352.90125    479069.47825     -1211.77525        30.50025                                                                
C09  39700936.61324   9179815.77624     -3337.18724        26.60024                                                                
E09  25527846.14024   4188265.44624     -5510.44024        28.70024                                                                
E25  24146674.40525    549286.95125     -1962.36025        32.40025                                                                
E31  27190945.10023   2707550.01923     -6056.04323        23.40023                                                                
C34  25060920.88524   3771041.90124     -1848.06824        25.40024                                                                
> 2024 12 29 08 50 28.9999999  0 31                      
G14  20239960.76707    -17528.36807     -4134.82107        45.30007  20239974.85726     -9404.58426     -3090.53626        38.40026
G13  20900465.90906   5951634.72506     -1327.19806        41.00006                                                                
G15  23290344.83016   7176383.70416       -90.04716        36.80016                                                                
G19  24093117.08226   6163868.12326      -138.19226        38.90026                                                                
G05  22717086.48826     33501.53926     -4883.50326        37.20026                                                                
G20  23415609.81125   3742662.78525     -6051.47425        32.20025                                                                
G17  22112699.19725    330581.15325      -993.69125        29.70025                                                                
G07  23520734.73424   3604326.30624     -5178.90924        28.10024                                                                
G30  21410873.96007   -110919.40607     -4349.49107        43.40007  21410884.15326   4628569.03726     -3247.01126        35.60026
C25  22338162.01207   7554994.62307     -4742.22107        45.90007  22338169.80725   5701514.21525     -3572.18125        31.90025
R15  22411397.11316-120078917.00716     -6532.33316        39.40016
C23  22774964.72007    168778.58707     -2563.91707        43.20007  22774970.41606   4892094.97506     -1932.22506        39.20006
R16  19889832.85507-106567010.96507     -4444.97607        42.60007
C33  25198085.52807   3867344.89107     -6737.22807        44.60007                                                                
E05  21803130.50707   7195794.86307     -3155.41607        42.20007  21803138.00205   5381480.70805     -2355.99505        33.70005
E16  23288644.40707     11788.17707     -3140.97807        42.50007  23288649.20425   7258502.86425     -2345.38125        34.50025
E24  23916111.52106   7450327.55806     -4488.28406        41.30006  23916123.51225   5571737.64625     -3349.90425        33.30025
C10  38021134.41607   6246943.68207     -3074.17907        42.00007                                                                
C32  23833224.00206   6870284.02506     -1705.07006        39.70006  23833231.19725   5725928.88725     -1281.88425        34.40025
C07  38411080.46206     88445.22806     -3370.98606        39.40006                                                                
R07  23018520.91006-123539710.86006       536.18506        39.10006
E03  25796754.27926   7332502.57326     -1076.06626        36.30026  25796759.97525   5483090.23225      -809.79225        31.00025
R06  19742073.84725-105666245.56625     -2136.77625        32.30025
R09  21675854.21826-116066834.37126     -1483.99226        38.70026
C37  26397871.13425    477860.84825     -1209.89325        29.80025                                                                
R05  20711674.30625-111035087.58425     -6913.01225        30.80025
E25  24146348.23125    547325.24325     -1961.70425        31.00025                                                                
C09  39700843.37824   9176475.42324     -3343.87524        26.20024                                                                
E09  25528184.90524   4182758.12324     -5507.80624        28.00024                                                                
E31  27191365.11023   2701495.13023     -6056.60923        23.30023                                                                
C34  25060580.02124   3769193.47524     -1849.87824        24.80024                                                                
> 2024 12 29 08 50 30.0000000  0 30                      
G15  23289742.84726   7176291.87426       -93.45326        40.90026                                                                
G14  20240138.24407    -21664.91907     -4138.41407        45.30007  20240149.03626    -12493.29426     -3089.23926        37.90026
G13  20900110.35506   5950306.68506     -1329.84506        41.20006                                                                
G19  24092526.19126   6163730.35726      -138.41726        38.50026                                                                
G20  23416149.43725   3736613.11325     -6049.35725        31.70025                                                                
G05  22717402.47026     28618.43326     -4882.90426        35.90026                                                                
G17  22112278.88824    329591.18224      -989.27424        29.10024                                                                
G07  23521129.56124   3599155.58824     -5168.08824        27.40024                                                                
G30  21411087.41317   -115273.47517     -4357.17817        43.40017  21411100.00425   4625315.49225     -3256.84525        35.30025
C25  22338461.80507   7550250.53707     -4745.70707        46.10007  22338469.30025   5697941.14825     -3573.49425        31.70025
C23  22774851.39807    166212.78907     -2567.66207        43.50007  22774852.29806   4890161.38506     -1934.99406        39.40006
R16  19890051.40407-106571441.75707     -4449.03607        42.70007
E05  21803116.11707   7192637.88207     -3158.78907        42.40007  21803128.70805   5379123.11405     -2359.09105        34.50005
R15  22412008.68907-120085450.44607     -6535.61307        42.20007
E24  23916359.44907   7445837.70107     -4491.61107        42.20007  23916367.24325   5568387.30425     -3351.83225        33.00025
C33  25198766.35707   3860606.52607     -6739.65007        44.20007                                                                
C10  38021112.83107   6243867.98107     -3077.31807        41.90007                                                                
C07  38411115.83816     85073.91516     -3372.58216        39.70016                                                                
C32  23832940.99816   6868576.76216     -1709.36916        39.90016  23832947.29425   5724643.58025     -1287.21925        34.80025
R07  23017805.90506-123539154.02706       530.55606        39.50006
E03  25796335.76826   7331421.81726     -1084.41226        36.30026  25796350.45825   5482284.06625      -806.05325        31.90025
R06  19741863.99225-105668386.47925     -2140.02925        32.20025
R09  21675571.81426-116068588.64926     -1484.30726        37.00026
R05  20712403.70125-111042251.26925     -6919.51025        30.00025
E25  24146110.19625    545372.80625     -1947.79825        30.10025                                                                
C09  39700894.04324   9173134.46724     -3341.25124        25.80024                                                                
E31  27191906.53523   2695442.92223     -6050.85423        23.20023                                                                
C34  25060310.20824   3767341.18624     -1854.21824        24.20024                                                                
C37  26397483.50224    476660.04824     -1196.88224        29.10024                                                                
E16                                                                  23288638.71125   7256153.52625     -2352.27325        34.00025
> 2024 12 29 08 50 30.9999999  0 30                      
G14  20240238.97407    -25807.06207     -4144.92807        45.30007  20240249.46726    -15587.35526     -3096.72926        37.70026
G15  23289068.31317   7176194.54517      -100.07817        44.00017                                                                
G30  21411228.31507   -119632.29807     -4361.19107        43.30007  21411237.30925   4622065.07725     -3248.84425        33.50025
G13  20899676.85506   5948972.21406     -1336.93406        41.40006                                                                
G19  24091859.75316   6163588.73216      -143.55416        38.20016                                                                
G20  23416614.71525   3730557.94425     -6057.90325        31.30025                                                                
G05  22717630.01225     23723.39625     -4900.99225        34.60025                                                                
G17  22111768.94124    328595.77224      -998.12724        28.70024                                                                
G07  23521411.66624   3593982.76124     -5173.87024        26.80024                                                                
C25  22338686.34907   7545501.72407     -4751.16507        46.10007  22338692.94525   5694361.95325     -3582.25125        31.60025
E24  23916523.13607   7441342.99407     -4497.12307        43.20007  23916533.92825   5565031.16625     -3359.02925        32.70025
R15  22412541.72007-120091980.82307     -6542.73407        42.80007
C23  22774649.93807    163640.73107     -2575.18107        43.50007  22774656.53306   4888223.14706     -1940.55706        38.60006
R16  19890198.30207-106575908.47207     -4456.60607        42.80007
E05  21803030.07607   7189474.97007     -3165.86907        42.60007  21803040.86905   5376761.28105     -2363.94705        34.30005
C33  25199374.33607   3853864.24307     -6744.22607        43.90007                                                                
C10  38021017.49707   6240787.68307     -3082.58807        41.80007                                                                
C32  23832578.24906   6866863.90206     -1715.65506        40.40006  23832586.64425   5723356.41325     -1288.09425        34.80025
C07  38411075.36606     81697.38106     -3379.13706        40.20006                                                                
R07  23017009.35606-123538579.57406       524.18506        39.90006
E03  25795851.00426   7330335.08326     -1089.47226        36.20026  25795870.19125   5481476.77325      -807.85525        31.80025
R06  19741576.49115-105670530.44315     -2147.76615        32.30015
R09  21675105.63726-116069779.05926     -1497.37626        35.50026
C37  26397042.80824    475457.91624     -1202.79524        28.60024                                                                
R05  20712985.29924-111049044.75824     -6922.69524        29.30024
E25  24145780.72424    543422.57024     -1949.13124        29.20024                                                                
C09  39700834.38424   9169790.12024     -3346.03424        25.40024                                                                
E31  27192363.71823   2689392.10923     -6050.10223        23.10023                                                                
C34  25060008.91724   3765483.12524     -1860.94224        23.70024                                                                
E16                                                                  23288548.77325   7253794.92325     -2363.22925        33.20025
> 2024 12 29 08 50 32.0000000  0 29                      
G14  20240415.25207    -29955.26007     -4151.21807        45.60007  20240427.84316    -18684.91816     -3099.30816        37.60016
G15  23288482.81907   7176090.55907      -107.31507        45.10007                                                                
G30  21411448.06307   -123996.84307     -4367.39607        43.30007  21411460.35425   4618808.24525     -3260.03325        34.10025
G13  20899320.70107   5947633.01407     -1341.81107        41.70007                                                                
G19  24091291.64606   6163440.95906      -150.84606        37.90006                                                                
G20  23417145.34825   3724499.85125     -6059.54225        30.90025                                                                
G05  22717941.49625     18817.69325     -4911.02525        33.40025                                                                
G17  22111340.83724    327592.79824     -1006.75424        28.20024                                                                
G07  23521798.39824   3588805.81824     -5178.99024        26.30024                                                                
C25  22338987.04107   7540747.13307     -4757.46907        46.40007  22338992.13825   5690779.10725     -3584.66425        31.30025
E24  23916768.06607   7436842.18407     -4503.85107        43.90007  23916778.25915   5561670.44515     -3363.00415        32.60015
R16  19890416.55107-106580340.03107     -4461.01107        42.90007
R15  22413154.19607-120098520.38007     -6548.17707        42.90007
C23  22774541.41307    161063.30007     -2580.11307        43.40007  22774539.31506   4886281.21206     -1943.78006        38.00006
E05  21803023.78107   7186306.29307     -3171.55407        42.60007  21803032.47505   5374395.20605     -2368.19005        33.70005
C32  23832298.24316   6865146.97116     -1718.96316        41.30016  23832306.03816   5722061.94116     -1298.12216        36.00016
C33  25200057.56327   3847116.25827     -6750.82127        43.50027                                                                
C10  38020999.21007   6237701.46907     -3089.16607        41.70007                                                                
C07  38411108.94326     78314.52926     -3386.00326        40.50026                                                                
R07  23016307.24206-123538092.44206       519.04406        39.90006
E03  25795457.97616   7329242.85116     -1094.97816        36.20016  25795468.46925   5480661.77525      -818.84925        31.80025
R06  19741339.65525-105672528.57825     -2153.51325        32.50025
R09  21674818.43525-116071509.65425     -1502.75825        34.20025
C37  26396663.87024    474251.12824     -1209.11424        28.30024                                                                
R05  20713667.92624-111055961.40124     -6930.75624        28.70024
E25  24145547.48524    541471.00724     -1952.22224        28.50024                                                                
C09  39700832.58624   9166439.83524     -3353.24724        25.00024                                                                
E31  27192902.74523   2683336.32823     -6058.25223        23.00023                                                                
C34  25059746.29923   3763622.34623     -1862.13523        23.20023                                                                
> 2024 12 29 08 50 32.9999999  0 26                      
G14  20240518.38107    -34110.84007     -4159.26107        45.80007  20240530.07306    -21788.50006     -3106.58406        37.40006
G15  23287811.28407   7175979.81807      -114.11807        45.10007                                                                
G30  21411589.86507   -128368.09607     -4374.59707        43.20007  21411603.35526   4615543.89926     -3268.09526        36.40026
G13  20898886.00207   5946286.52807     -1350.12607        42.00007                                                                
G20  23417592.33825   3718427.87325     -6078.90725        30.40025                                                                
G05  22718193.92225     13908.51925     -4910.89925        32.40025                                                                
G17  22110865.96624    326582.45624     -1014.02524        27.80024                                                                
C25  22339212.18507   7535985.44907     -4765.22207        46.30007  22339219.38025   5687190.70525     -3591.17325        31.40025
E24  23916936.84907   7432334.20207     -4511.55807        43.90007  23916948.84125   5558303.14925     -3370.57725        32.40025
R16  19890567.34707-106584825.85107     -4470.36107        43.00007
E05  21802934.14307   7183130.22207     -3179.76107        42.50007  21802942.83725   5372025.07025     -2372.16225        33.60025
R15  22413689.02607-120105061.46107     -6555.72107        42.80007
C32  23831935.49407   6863421.62807     -1729.54507        41.60007  23831948.68506   5720761.23406     -1303.82106        37.70006
C23  22774348.34707    158479.05707     -2587.64307        43.20007  22774347.44706   4884333.31706     -1950.87006        38.30006
C10  38020901.77707   6234608.11207     -3096.92207        41.60007                                                                
R07  23015521.78606-123537578.49706       510.23206        40.00006
C07  38411070.56926     74925.25726     -3392.47526        40.40026                                                                
E03  25794973.51106   7328142.74806     -1104.03506        36.30006  25794987.00226   5479837.55626      -828.82726        41.40026
R06  19741086.63015-105674855.78515     -2162.66715        32.50015
R09  21674379.53925-116072846.75625     -1512.68125        33.10025
C37  26396208.18524    473035.19224     -1220.50724        27.90024                                                                
R05  20714283.70024-111062938.45424     -6943.02524        28.20024
E25  24145244.09524    539510.50624     -1964.96524        27.80024                                                                
C09  39700791.51424   9163081.73924     -3361.99424        24.60024                                                                
E31  27193352.43423   2677275.18023     -6063.81923        22.80023                                                                
C34  25059407.23323   3761756.93123     -1867.72823        22.70023                                                                
> 2024 12 29 08 50 34.0000001  0 25                      
G14  20240709.04907    -38266.33907     -4155.44907        46.00007  20240723.43906    -24891.70906     -3103.01606        37.30006
G15  23287228.18707   7175869.45807      -110.17007        45.20007                                                                
G13  20898539.74207   5944939.77707     -1346.88007        43.50007                                                                
G30  21411820.40507   -132738.99307     -4370.71107        43.20007  21411835.69526   4612280.62626     -3262.73026        36.10026
G17  22110461.84624    325572.98024     -1009.04024        27.40024                                                                
G07  23522465.73623   3578441.43123     -5181.54423        23.20023                                                                
G05  22718540.48225      8998.93625     -4909.77625        31.40025                                                                
R16  19890803.28307-106589288.73607     -4466.22207        45.70007
C25  22339527.86707   7531224.40307     -4760.71507        46.20007  22339535.36115   5683602.92215     -3587.46515        32.50015
E24  23917196.46907   7427826.55007     -4507.47607        44.60007  23917208.16125   5554937.91125     -3364.20025        32.10025
E03  25794579.88406   7327043.00406     -1099.56306        39.00006  25794596.97217   5479016.52217      -819.44117        42.10017
C32  23831667.18007   6861695.48107     -1726.54607        42.70007  23831680.67107   5719460.55607     -1300.66107        45.60007
E05  21802940.13907   7179954.28807     -3175.85807        42.40007  21802953.62925   5369655.32725     -2369.54125        33.50025
C10  38020897.28107   6231515.67507     -3091.97007        41.50007                                                                
R07  23014831.06406-123537088.29506       514.48506        40.40006
C07  38411128.12916     71536.55916     -3388.40316        40.30016                                                                
C23  22774241.62117    155893.92917     -2585.56517        41.50017  22774245.21806   4882385.65006     -1947.54906        38.30006
R06  19740876.47605-105676933.32105     -2159.44805        32.90005
R15  22414306.89827-120111565.07727     -6551.44727        42.20027
C37  26395816.05724    471815.36624     -1221.76824        27.60024                                                                
R05  20714979.21824-111069858.90124     -6931.80124        27.60024
E25  24145036.63924    537541.44224     -1973.34224        27.20024                                                                
C09  39700846.07624   9159723.29324     -3358.61424        24.10024                                                                
E31  27193922.63923   2671214.23523     -6060.82823        22.70023                                                                
C34  25059165.00123   3759891.47823     -1865.46723        22.20023                                                                
> 2024 12 29 08 50 34.9999999  0 23                      
G14  20240798.68707    -42423.33007     -4157.72907        46.30007  20240812.47716    -27995.77516     -3104.48916        36.20016
G15  23286548.25807   7175757.99107      -112.01907        45.80007                                                                
G13  20898095.15007   5943591.88007     -1348.46807        44.30007                                                                
G30  21411952.91307   -137111.27107     -4372.95807        43.10007  21411967.00416   4609015.86016     -3265.50516        35.90016
G05  22718776.11925      4100.23025     -4893.25725        30.60025                                                                
G17  22109952.19924    324573.49924      -994.48124        27.00024                                                                
R16  19890938.79008-106593756.98108     -4468.06008        51.10008
E24  23917351.76207   7423317.55607     -4509.65607        45.30007  23917368.55025   5551573.32825     -3364.24925        31.80025
C25  22339740.71907   7526461.98807     -4763.09107        46.10007  22339747.91406   5680014.01706     -3589.45906        36.80006
E03  25794092.12207   7325942.48607     -1100.90207        44.40007  25794105.61206   5478194.57406      -822.40306        41.30006
C32  23831299.63507   6859968.39107     -1727.55707        43.70007  23831311.62607   5718158.92007     -1302.11307        44.80007
C10  38020792.05307   6228421.95407     -3094.35507        41.50007                                                                
R07  23014033.01606-123536568.99306       512.56106        40.50006
C07  38411069.67006     68146.46606     -3390.78506        40.00006                                                                
R15  22414840.22926-120118161.21126     -6552.89826        40.90026
C23  22774043.45816    153308.56816     -2585.47216        40.30016  22774040.46006   4880437.22406     -1948.80206        39.60006
R06  19740599.16805-105679193.34305     -2161.66105        33.20005
R05  20715528.43824-111076542.25324     -6930.37824        27.20024
E25  24144714.66224    535570.09624     -1972.48224        26.60024                                                                
E31  27194370.22923   2665158.98623     -6052.39023        22.50023                                                                
C09  39700824.49124   9156365.59624     -3357.31524        23.70024                                                                
C34  25058823.53723   3758031.32423     -1857.50223        21.70023                                                                
E05  21802844.80507   7176776.94907     -3178.03507        42.40007  21802855.29725   5367285.69425     -2369.57325        32.10025
> 2024 12 29 08 50 36.0000001  0 23                      
G14  20240991.45307    -46583.98207     -4162.47107        46.50007  20241001.34606    -31102.70106     -3108.34906        37.00006
G15  23285973.85607   7175643.01707      -116.72907        46.10007                                                                
G13  20897751.88707   5942240.37207     -1353.31107        44.30007                                                                
G30  21412188.25107   -141486.80807     -4377.15707        43.10007  21412198.74306   4605748.54206     -3268.58806        35.90006
G05  22719096.89625      -795.31125     -4893.94725        29.90025                                                                
G17  22109552.57524    323574.63524      -998.55424        26.70024                                                                
R16  19891175.92508-106598225.98708     -4473.01308        51.00008
E24  23917610.18307   7418805.11007     -4514.16107        45.90007  23917618.27725   5548204.05225     -3371.61425        31.60025
C25  22340056.10107   7521696.43207     -4767.11507        46.00007  22340063.89606   5676422.73606     -3592.45906        38.90006
E03  25793705.98907   7324838.46507     -1105.77007        44.30007  25793715.88206   5477370.16306      -825.64006        40.70006
C32  23831033.11907   6858237.40807     -1732.92607        43.90007  23831044.51107   5716854.51107     -1305.79307        44.70007
E05  21802849.30207   7173596.09207     -3182.60907        42.30007  21802861.59325   5364913.67025     -2373.21325        32.10025
C10  38020783.35906   6225324.92606     -3098.67606        41.40006                                                                
R07  23013329.10406-123536009.85806       507.73006        40.50006
C07  38411130.82706     64753.27806     -3394.72606        39.80006                                                                
C23  22773935.53306    150719.68006     -2590.64606        39.40006  22773938.83006   4878486.13506     -1952.41606        39.40006
R15  22415475.18916-120124758.10816     -6556.99416        40.00016
R06  19740392.31105-105681288.44105     -2167.16205        33.50005
R05  20716232.05124-111083508.60024     -6943.52624        26.70024
E31  27194929.04223   2659105.52523     -6052.55223        22.30023                                                                
C09  39700878.45423   9153002.83323     -3365.28823        23.30023                                                                
C34  25058589.99923   3756173.16223     -1857.16123        21.30023                                                                
E25  24144453.84224    533595.03724     -1976.91224        26.10024                                                                
> 2024 12 29 08 50 36.9999999  0 25                      
G14  20241064.30307    -50748.88507     -4167.02207        46.70007  20241074.79606    -34212.70406     -3111.53406        36.80006
G15  23285272.94107   7175525.07707      -119.42307        46.00007                                                                
G30  21412303.37107   -145866.10907     -4381.17407        43.30007  21412312.66406   4602479.29606     -3270.20206        40.50006
G05  22719326.23824     -5699.86024     -4909.04324        29.20024                                                                
G17  22109000.65724    322570.54624     -1006.69924        26.40024                                                                
G13  20897291.10607   5940886.45707     -1355.11407        44.30007                                                                
G19  24088121.94026  10757879.26426      -160.11626        37.50026                                                                
R16  19891294.94308-106602704.16208     -4475.05508        50.70008
E24  23917751.38507   7414289.55807     -4517.84607        46.10007  23917761.87826   5544831.85826     -3373.64826        37.50026
C25  22340249.76707   7516928.00807     -4769.84907        46.00007  22340258.46106   5672829.74406     -3593.84206        39.30006
C32  23830646.68707   6856504.30107     -1734.16507        43.90007  23830658.97807   5715548.05107     -1307.48207        44.00007
E03  25793186.44907   7323732.51207     -1106.91807        44.20007  25793207.13426   5476543.61326      -827.61926        39.90026
E05  21802735.68007   7170411.03407     -3187.15107        42.30007  21802748.57125   5362534.67625     -2382.47525        33.60025
C10  38020663.74226   6222223.71426     -3103.29626        41.30026                                                                
R07  23012515.16706-123535502.80706       507.41706        40.40006
C07  38411061.57526     61357.60726     -3396.90626        39.60026                                                                
C23  22773711.88706    148127.19106     -2594.28406        39.00006  22773716.08406   4876532.26206     -1955.26106        39.10006
R15  22415975.84306-120131277.01606     -6558.78806        39.40006
R06  19740082.32505-105683472.87105     -2171.32705        33.80005
E16  23288233.99124  10747471.28324     -3175.12324        27.80024                                                                
R05  20716868.51024-111090754.88624     -6947.39224        26.30024
E25  24144118.07524    531611.02024     -1988.49124        25.60024                                                                
E31  27195382.62823   2653047.86823     -6059.74223        22.20023                                                                
C37  26394502.36623    468146.86123     -1228.02723        21.40023                                                                
C34  25058232.64723   3754312.37223     -1862.10023        20.90023                                                                
> 2024 12 29 08 50 37.9999998  0 26                      
G14  20241171.02907    -54919.64707     -4173.68107        46.70007  20241180.62216    -37327.06316     -3116.53116        36.70016
G15  23284609.50017   7175402.42417      -125.00917        45.90017                                                                
G30  21412445.17317   -150248.94417     -4384.59217        43.30017  21412457.76406   4599205.94606     -3275.39506        39.90006
G19  24087462.99626  10757717.40426      -164.66426        38.10026                                                                
G05  22719562.47424    -10617.11424     -4923.59624        28.70024                                                                
G17  22108497.60624    321557.49324     -1017.53424        26.10024                                                                
G13  20896860.00507   5939525.45707     -1364.54007        44.60007                                                                
R16  19891441.84128-106607170.11228     -4481.95028        50.40028
E24  23917923.76607   7409768.39807     -4523.70407        46.00007  23917933.05926   5541454.16326     -3380.43826        37.40026
C25  22340481.20727   7512154.62027     -4775.85927        45.90027  22340487.50226   5669232.02626     -3600.07126        38.70026
C32  23830291.13307   6854763.49807     -1744.64707        43.90007  23830304.02427   5714231.12627     -1322.15527        42.80027
C23  22773524.21707    145527.95307     -2602.60707        43.80007  22773525.41616   4874573.15616     -1961.71716        38.00016
E03  25792718.77207   7322620.29607     -1115.34507        44.00007  25792730.76426   5475713.36726      -832.09126        39.50026
E05  21802652.93707   7167219.96307     -3194.07007        42.50007  21802666.72825   5360149.53125     -2388.21525        33.50025
E16  23288142.55416  10744293.00916     -3180.57716        36.40016  23288153.94724   8031355.76224     -2373.26624        29.10024
C10  38020572.30516   6219118.63816     -3107.00216        41.10016                                                                
R07  23011734.20806-123535011.84206       498.08806        40.40006
C07  38411026.20016     57957.21816     -3402.74016        39.50016                                                                
R15  22416519.06706-120137861.67806     -6562.26606        39.10006
R06  19739804.71805-105685669.51705     -2179.99005        34.00005
R09  21672486.05024-116080400.99224     -1517.32424        28.00024
R05  20717488.78124-111097754.89324     -6951.15824        26.00024
E25  24143813.78624    529623.31924     -1989.53824        25.20024                                                                
E31  27195840.11223   2646981.70023     -6070.41023        22.00023                                                                
C37  26394058.97323    466917.91023     -1228.94823        21.30023                                                                
C34  25057900.17723   3752444.06723     -1872.05823        20.50023                                                                
> 2024 12 29 08 50 39.0000000  0 26                      
G14  20241361.69707    -59090.50307     -4170.89307        46.70007  20241376.08706    -40441.69706     -3114.76406        36.70006
G15  23284037.49617   7175277.21217      -126.49117        45.80017                                                                
G13  20896522.73827   5938163.37827     -1363.36627        44.60027                                                                
G30  21412682.00907   -154632.86507     -4384.45307        43.70007  21412692.80106   4595932.72106     -3273.15506        39.40006
G19  24086890.39316  10757555.58116      -161.82316        39.20016                                                                
G05  22719895.54424    -15539.90724     -4925.55224        28.30024                                                                
G17  22108106.37624    320539.13824     -1021.00324        26.00024                                                                
R16  19891680.17618-106611644.46318     -4483.48218        50.00018
E24  23918180.98807   7405245.98407     -4522.28007        46.00007  23918194.47916   5538077.90716     -3375.52816        36.70016
C25  22340798.68727   7507377.19827     -4779.42827        45.80027  22340805.58226   5665636.15226     -3594.94426        38.10026
C32  23830029.11407   6853022.82007     -1740.61207        44.10007  23830039.60727   5712915.63627     -1314.77027        42.00027
C23  22773422.58807    142928.31607     -2599.83007        43.80007  22773426.48516   4872614.42316     -1958.54316        37.90016
E05  21802662.23107   7164028.35907     -3191.86407        43.00007  21802673.02425   5357762.48825     -2387.98625        32.00025
E16  23288149.74907  10741114.23307     -3178.76907        42.70007  23288162.64025   8028979.99025     -2375.76625        30.60025
E03  25792328.14317   7321507.54017     -1112.27217        43.90017  25792344.63126   5474881.96126      -831.98426        39.20026
C10  38020566.90906   6216013.56606     -3105.06306        41.10006                                                                
C07  38411081.06216     54555.12916     -3402.93116        39.80016                                                                
R07  23011047.38306-123534543.08506       498.85306        40.40006
R15  22417146.83216-120144419.58016     -6563.78116        39.30016
R06  19739602.05805-105687785.99305     -2177.14705        34.00005
R09  21672180.26225-116081968.83425     -1520.11725        29.60025
R05  20718157.01824-111104530.78224     -6958.67224        25.80024
E25  24143587.14224    527637.98824     -1984.14324        25.00024                                                                
C37  26393694.42623    465689.15623     -1228.65323        21.40023                                                                
C34  25057651.34923   3750567.99623     -1879.95123        20.20023                                                                
E31  27196415.71323   2640906.05923     -6080.36323        21.90023                                                                
> 2024 12 29 08 50 39.9999998  0 27                      
G14  20241454.03307    -63262.53007     -4172.60507        46.80007  20241469.02316    -43557.29716     -3116.07716        36.70016
G15  23283362.96307   7175152.92807      -123.82107        45.70007                                                                
G30  21412816.01627   -159017.99027     -4385.71827        44.60027  21412825.90926   4592658.78826     -3274.28126        38.90026
G13  20896079.34527   5936802.36227     -1360.23027        44.50027                                                                
G19  24086221.55606  10757393.45006      -162.28406        39.20006                                                                
G20  23421104.40724  10903060.38924     -6084.43724        26.60024                                                                
G17  22107589.53424    319523.24024     -1014.66924        25.90024                                                                
G05  22720118.58924    -20464.42024     -4925.36224        29.40024                                                                
E24  23918345.27407   7400723.51307     -4522.74107        45.90007  23918353.96816   5534700.80216     -3377.52316        36.20016
C23  22773222.32607    140328.00407     -2600.64607        44.60007  22773224.72506   4870654.66606     -1960.26606        37.90006
C25  22341013.93827   7502602.56927     -4773.22227        45.60027  22341021.73216   5662039.37216     -3597.22716        37.60016
C32  23829660.07007   6851281.10007     -1742.23807        44.20007  23829672.96126   5711602.62226     -1311.77426        41.30026
E05  21802568.99617   7160835.62517     -3193.29217        43.30017  21802581.28725   5355383.65225     -2374.72825        31.90025
E16  23288059.21227  10737933.11327     -3182.28427        43.10027  23288063.10925   8026605.27925     -2374.17725        30.20025
E03  25791838.28207   7320395.37507     -1112.11807        43.70007  25791853.27226   5474053.54326      -826.92326        38.60026
C07  38411033.09506     51154.17606     -3400.37806        41.00006                                                                
C10  38020461.68216   6212906.87316     -3107.49716        41.20016                                                                
R16  19891822.87818-106616152.44818     -4482.37118        48.80018
R07  23010262.82706-123534097.31406       495.92406        40.30006
R15  22417671.16926-120150969.07526     -6568.68126        39.60026
R06  19739310.06015-105689968.89915     -2178.83015        34.00015
R09  21671747.96125-116083404.50425     -1517.59925        31.20025
R05  20718768.59524-111111549.13824     -6947.37124        25.60024
C37  26393217.45623    464464.41423     -1222.73323        23.10023                                                                
E25  24143241.78224    525656.10624     -1980.15324        25.00024                                                                
E31  27196866.00123   2634826.28923     -6081.82323        21.90023                                                                
C34  25057296.69423   3748687.10723     -1883.29323        19.90023                                                                
> 2024 12 29 08 50 41.0000000  0 26                      
G14  20241651.29607    -67437.51107     -4176.44707        47.10007  20241664.48706    -46674.87706     -3118.56306        37.00006
G30  21413053.45227   -163406.52627     -4390.23227        44.80027  21413061.54626   4589382.20726     -3277.89826        39.80026
G15  23282780.16707   7175025.90707      -128.38907        45.50007                                                                
G19  24085658.84526  10757223.81926      -173.38126        39.10026                                                                
G05  22720453.45716    -25392.34816     -4929.62416        36.60016                                                                
G20  23421673.71325  10896977.22025     -6083.15525        30.90025                                                                
G17  22107198.00524    318499.78624     -1027.22824        25.80024                                                                
G13  20895739.98027   5935436.71427     -1367.96227        44.50027                                                                
E24  23918605.79407   7396198.23207     -4526.67507        45.90007  23918615.08706   5531321.54506     -3380.32406        36.10006
C23  22773121.89607    137725.18907     -2604.05907        44.90007  22773124.89406   4868693.18506     -1962.33806        37.50006
C25  22341329.32027   7497824.09727     -4780.38227        45.50027  22341339.81226   5658438.84126     -3602.39826        36.60026
C32  23829396.55207   6849536.78807     -1745.60307        44.20007  23829406.44526   5710286.59926     -1317.52426        40.20026
E05  21802578.58907   7157640.21107     -3196.74707        43.60007  21802593.27925   5353004.20825     -2379.74325        31.70025
E16  23288059.51227  10734747.98927     -3187.11927        43.20027  23288072.70325   8024232.10925     -2372.39325        30.20025
E03  25791450.05107   7319280.84007     -1115.71607        43.60007  25791467.73826   5473218.19826      -838.80526        38.30026
C07  38411088.55727     47748.72827     -3407.68927        41.70027                                                                
R16  19892061.81208-106620630.62708     -4486.83108        47.60008
C10  38020459.28406   6209797.96906     -3110.00306        41.20006                                                                
R07  23009575.70216-123533627.02716       497.56816        40.20016
R15  22418318.42126-120157630.19826     -6572.95926        39.60026
E25  24143029.22925    523664.69125     -1996.17625        32.80025                                                                
R06  19739120.89105-105692157.14605     -2183.24905        34.00005
R09  21671418.78925-116084846.28225     -1523.40525        33.10025
R05  20719450.62315-111118397.69515     -6952.96315        33.00015
C34  25057080.84423   3746799.60123     -1890.81223        19.70023                                                                
C37  26392855.00724    463233.72224     -1233.66524        23.70024                                                                
> 2024 12 29 08 50 41.9999999  0 27                      
G14  20241757.42307    -71616.11307     -4180.40407        47.10007  20241769.41506    -49795.39006     -3121.97206        38.70006
G30  21413201.24927   -167797.82927     -4392.67727        45.10027  21413207.84526   4586104.05626     -3278.92926        40.00026
G15  23282119.72407   7174895.45507      -132.16807        45.40007                                                                
G13  20895312.77627   5934068.54327     -1369.43027        44.40027                                                                
G05  22720707.68106    -30324.57706     -4934.37006        39.00006                                                                
G19  24084998.70226  10757053.71226      -170.34426        38.90026                                                                
G20  23422147.38515  10890891.09915     -6087.58515        32.60015                                                                
G07  23525101.21124  11197945.86724     -5210.00024        26.60024                                                                
G17  22106679.66424    317473.80924     -1027.23724        25.80024                                                                
E24  23918776.37607   7391669.65507     -4530.21507        45.80007  23918786.56906   5527939.77806     -3383.01506        35.90006
C23  22772935.42507    135118.64707     -2608.40107        44.90007  22772935.72506   4866728.83806     -1965.77606        37.00006
C25  22341560.16027   7493043.51427     -4781.62827        45.40027  22341565.55626   5654837.33826     -3601.98126        35.80026
C32  23829041.59807   6847788.24107     -1750.66207        44.20007  23829054.48926   5708968.40126     -1319.28326        39.50026
R09  21671042.54916-116086518.04116     -1532.36016        38.60016
E05  21802496.44617   7154441.08317     -3200.97717        43.70017  21802511.73525   5350621.69325     -2384.04525        31.40025
E16  23287980.36717  10731561.28217     -3186.74117        43.20017  23287989.66025   8021852.57925     -2382.70425        31.00025
E03  25790982.67427   7318160.70627     -1122.93327        43.40027  25790988.67026   5472388.20326      -827.31826        37.60026
R16  19892208.71007-106625095.80907     -4491.02907        46.80007
C07  38411049.88327     44342.65627     -3406.37727        41.80027                                                                
C10  38020369.04606   6206685.80206     -3113.79206        41.20006                                                                
R07  23008784.25016-123533079.38116       485.37716        40.10016
R15  22418851.15226-120164159.80926     -6572.21526        39.50026
E25  24142711.44926    521666.59526     -2000.68326        37.60026  24142727.33824   8129297.53724     -1488.29524        27.80024
R06  19738830.69205-105694287.36605     -2187.84405        34.10005
R05  20720066.99625-111125377.04525     -6959.21525        32.60025
C37  26392402.32024    462001.30624     -1233.27624        24.70024                                                                
C34  25056735.18323   3744905.76623     -1896.99423        19.60023                                                                
> 2024 12 29 08 50 42.9999998  0 27                      
G14  20241847.36107    -75801.42407     -4188.65607        47.10007  20241859.05306    -52920.82606     -3127.89106        38.50006
G30  21413329.86027   -172195.10427     -4400.25227        45.10027  21413336.15626   4582823.34126     -3281.99026        39.60026
G13  20894869.98327   5932691.64627     -1381.25627        44.20027                                                                
G05  22720943.91806    -35263.11906     -4941.68706        41.10006                                                                
G20  23422595.27506  10884798.67906     -6095.55506        37.60006                                                                
G15  23281439.19527   7174757.23927      -142.09627        44.70027                                                                
G19  24084325.36826  10756880.05126      -175.43826        38.80026                                                                
G17  22106166.41924    316444.11324     -1031.55324        26.20024                                                                
G07  23525400.40424  11192731.38324     -5214.47324        26.60024                                                                
E24  23918931.06927   7387134.32927     -4538.69027        45.80027  23918943.06006   5524553.06806     -3389.17506        35.70006
C25  22341770.61427   7488255.14227     -4792.25827        45.20027  22341778.10925   5651231.45425     -3608.06625        34.90025
R09  21670622.54007-116088054.56707     -1538.52407        44.40007
C23  22772730.06707    132506.17607     -2615.42907        44.80007  22772729.46716   4864759.77616     -1971.41516        36.70016
E05  21802396.91507   7151235.54207     -3208.74107        43.70007  21802414.30325   5348231.54725     -2393.95825        31.20025
C32  23828674.35227   6846031.18627     -1761.30527        44.10027  23828683.64626   5707645.73126     -1324.90326        39.30026
E16  23287877.83817  10728368.53717     -3196.00717        43.20017  23287890.42925   8019469.04925     -2385.52525        30.90025
C07  38411001.61727     40928.14827     -3418.71727        41.80027                                                                
R16  19892345.41627-106629607.62127     -4496.91427        46.00027
C10  38020260.22216   6203567.83416     -3120.86216        41.40016                                                                
C37  26391919.05524    460761.14024     -1244.03824        26.90024                                                                
E25  24142383.17616    519663.51116     -2006.57216        39.00016  24142400.26425   8127800.52425     -1501.36625        34.80025
R07  23007993.09826-123532632.84426       478.95226        40.00026
R15  22419381.18526-120170774.29426     -6582.09726        39.40026
R06  19738539.89325-105696511.50125     -2196.32025        34.10025
E03  25790485.91827   7317034.87627     -1128.67527        42.90027  25790496.11126   5471548.11426      -845.13526        37.40026
R05  20720678.87325-111132432.12125     -6967.06625        32.20025
C34  25056364.64023   3743006.40523     -1902.12023        20.30023                                                                
> 2024 12 29 08 50 44.0000000  0 29                      
G14  20242039.22807    -79987.10607     -4185.85907        47.00007  20242055.41706    -56046.49706     -3125.78106        38.40006
G30  21413561.30017   -176591.93917     -4396.60517        45.10017  21413573.59116   4579539.72716     -3285.05616        39.70016
G13  20894524.92127   5931315.32327     -1376.03327        44.10027                                                                
G05  22721289.27906    -40201.46606     -4938.23806        41.30006                                                                
G15  23280862.69417   7174618.64817      -138.77817        43.60017                                                                
G19  24083753.66426  10756704.47526      -176.53426        38.60026                                                                
G20  23423146.89326  10878707.35726     -6090.76126        37.50026                                                                
G17  22105769.49424    315408.33824     -1038.81324        26.60024                                                                
G07  23525783.83924  11187514.26524     -5218.42224        26.50024                                                                
E24  23919196.38527   7382598.85327     -4535.54127        45.70027  23919205.37905   5521166.16805     -3386.98705        35.10005
C25  22342088.99417   7483468.92117     -4785.13417        45.10017  22342096.78815   5647624.69815     -3607.18415        34.80015
R09  21670306.55917-116089568.16117     -1536.01517        44.30017
C23  22772630.23607    129893.05007     -2613.44807        44.70007  22772630.83626   4862798.65926     -1957.14026        36.60026
E05  21802414.00307   7148029.74707     -3205.91507        43.60007  21802425.99525   5345839.27825     -2393.32525        31.00025
C32  23828412.93317   6844274.46417     -1756.55017        44.00017  23828419.82816   5706322.84616     -1322.98916        38.70016
E16  23287888.03107  10725175.13207     -3193.72607        43.10007  23287899.12325   8017083.96125     -2385.86325        31.70025
C07  38411058.87717     37511.02917     -3418.41717        42.20017                                                                
R16  19892587.94827-106634104.90127     -4496.47227        45.30027
C10  38020261.12106   6200449.38806     -3118.67706        41.40006                                                                
E25  24142173.92126    517658.86126     -2005.18026        39.00026  24142183.21425   8126307.78825     -1490.59525        34.10025
C37  26391561.70226    459514.13326     -1250.42426        37.90026  26391578.79024   7918162.83024      -935.29124        26.10024
E03  25790106.38127   7315909.72627     -1125.55727        42.00027  25790110.87826   5470707.43026      -840.97926        36.80026
R07  23007312.26926-123532197.78826       483.21326        39.80026
R06  19738359.71825-105698747.85025     -2191.76325        34.10025
R05  20721373.49225-111139347.98225     -6962.81625        32.00025
R15  22420003.55526-120177301.61126     -6574.04826        38.50026
E31  27198914.48323  11287884.24823     -6099.31723        22.30023                                                                
C34  25056138.29623   3741106.34823     -1900.40123        21.00023                                                                
E09  25534156.77125  11370591.79225     -5554.60625        29.90025  25534179.25624   8498703.55124     -4145.05324        24.90024
> 2024 12 29 08 50 44.9999999  0 28                      
G13  20894098.01727   5929936.77427     -1379.65927        44.10027                                                                
G14  20242149.25207    -84177.30707     -4192.45207        47.00007  20242163.94206    -59175.32106     -3130.39406        38.30006
G30  21413709.99707   -180992.83707     -4402.92007        45.10007  21413721.98906   4576253.47206     -3287.56706        39.40006
G05  22721541.40426    -45145.23426     -4946.46726        41.30026                                                                
G15  23280195.95607   7174477.97807      -141.71007        42.90007                                                                
G20  23423615.16916  10872611.64216     -6097.89716        37.40016                                                                
G19  24083103.41426  10756525.03326      -181.37526        37.90026                                                                
G17  22105271.53924    314373.13524     -1034.91424        26.90024                                                                
E24  23919370.56417   7378059.16217     -4541.78917        45.60017  23919381.95625   5517776.23425     -3391.44325        34.90025
C25  22342320.43317   7478679.34117     -4791.24917        45.00017  22342328.52825   5644015.14325     -3610.94625        34.70025
E05  21802335.15707   7144819.46707     -3212.51607        43.60007  21802345.95025   5343441.48425     -2400.55125        30.70025
R09  21669919.22707-116091179.56207     -1543.67707        44.10007
C23  22772444.06507    127276.74107     -2617.89507        44.40007  22772441.66726   4860841.91826     -1954.54826        36.40026
E16  23287810.38407  10721977.63707     -3199.53407        43.10007  23287817.87925   8014698.85325     -2385.11325        31.60025
C07  38411025.00127     34092.31227     -3419.50927        42.50027                                                                
C32  23828050.18427   6842514.51827     -1761.55527        43.80027  23828070.57026   5704995.97226     -1328.86426        38.50026
R16  19892737.84427-106638587.66627     -4500.04427        44.70027
C10  38020170.28406   6197326.57606     -3124.98906        41.40006                                                                
E25  24141871.73026    515650.01026     -2010.19626        39.10026  24141876.82625   8124807.63825     -1503.85425        33.80025
C37  26391110.21516    458265.15916     -1249.95516        38.60016  26391131.50025   7917220.86925      -945.29425        35.00025
E03  25789619.81826   7314781.39826     -1129.66626        41.20026  25789636.90616   5469865.03516      -843.24916        36.60016
E09  25534534.51025  11365029.68325     -5561.59725        33.30025  25534548.00024   8494555.34024     -4148.20324        24.80024
R06  19738083.90915-105700953.65815     -2200.51615        34.00015
R15  22420541.08226-120183857.22226     -6584.51226        37.40026
R05  20721984.16925-111146295.97625     -6970.57925        31.90025
R07  23006524.71426-123531670.05726       481.46026        38.40026
E31  27199363.27323  11281784.49623     -6099.73823        23.30023                                                                
C34  25055807.62523   3739207.92523     -1897.60223        21.50023                                                                
> 2024 12 29 08 50 46.0000000  0 29                      
G14  20242319.23427    -88373.44227     -4199.84327        46.90027  20242332.42506    -62308.44006     -3135.26106        39.30006
G30  21413920.15207   -185398.54807     -4408.10807        45.70007  21413931.24406   4572963.31006     -3292.10806        39.20006
G13  20893734.96817   5928552.31317     -1387.41517        44.00017                                                                
G05  22721864.88016    -50093.97616     -4951.22016        41.20016                                                                
G15  23279600.26817   7174331.72117      -149.05017        42.50017                                                                
G20  23424143.70326  10866509.60826     -6105.18126        37.40026                                                                
G19  24082508.32626  10756341.19726      -186.03126        37.60026                                                                
G17  22104831.14424    313329.10824     -1048.43724        27.60024                                                                
G07  23526448.17924  11552790.32824     -5233.26024        25.70024                                                                
E24  23919608.60007   7373514.05107     -4547.81007        45.50007  23919617.29425   5514384.21025     -3393.06325        34.60025
C25  22342612.73107   7473884.70807     -4797.14807        45.00007  22342619.92626   5640403.25726     -3613.04426        35.80026
E05  21802316.87007   7141603.82207     -3218.32007        43.50007  21802330.96025   5341036.52325     -2408.54025        31.00025
E16  23287787.30007  10718774.63607     -3205.74807        43.00007  23287797.19325   8012307.44625     -2394.55025        34.50025
C07  38411050.78317     30669.92317     -3424.21717        42.60017                                                                
C32  23827769.27917   6840748.43417     -1769.14817        43.60017  23827778.27226   5703665.10126     -1332.86826        38.30026
R09  21669574.76607-116092700.03707     -1547.58307        43.90007
R16  19892955.19417-106643109.40917     -4506.58017        44.30017
C23  22772315.75427    124653.88127     -2626.13027        44.10027  22772317.85226   4858873.79626     -1973.80926        36.10026
C10  38020142.70306   6194198.80406     -3130.24406        41.40006                                                                
E25  24141618.70516    513635.73316     -2017.23716        39.20016  24141631.29625   8123300.97225     -1509.92025        35.30025
C37  26390724.68126    457009.31626     -1259.27626        38.60026  26390740.27125   7916276.72825      -945.22925        35.00025
E09  25534961.71416  11359462.65516     -5570.47516        36.10016  25534979.70124   8490396.82924     -4163.65124        26.20024
E03  25789215.09826   7313644.58326     -1141.05526        40.40026  25789224.09206   5469018.64506      -848.38506        36.40006
R06  19737857.86505-105703106.02105     -2208.27205        34.00005
R15  22421162.25226-120190538.98826     -6596.84026        36.60026
R05  20722648.80925-111153212.61225     -6983.50825        31.80025
R07  23005793.82026-123531126.24326       468.93626        37.30026
C34  25055559.99723   3737303.63123     -1907.22623        22.00023                                                                
E31  27199903.79823  11275679.39323     -6107.76723        23.30023                                                                
> 2024 12 29 08 50 47.0000000  0 29                      
G30  21414079.04207   -189811.90907     -4417.17507        46.10007  21414092.83206   4569667.55306     -3298.54706        40.40006
G14  20242439.15117    -92576.99117     -4206.99617        46.80017  20242454.74006    -65447.46406     -3141.96906        39.00006
G13  20893323.65307   5927160.20807     -1395.92307        44.30007                                                                
G15  23278950.01807   7174178.41707      -156.82607        42.30007                                                                
G05  22722127.19916    -55051.30916     -4961.61616        41.10016                                                                
G20  23424627.26826  10860399.08626     -6114.75326        37.30026                                                                
G19  24081866.17126  10756149.16626      -196.12926        37.20026                                                                
G17  22104355.67325    312272.96125     -1062.20525        33.50025                                                                
G07  23526755.46624  11547552.25924     -5238.05724        25.60024                                                                
R16  19893118.28107-106647601.35107     -4515.39607        44.70007
E24  23919793.57107   7368961.37007     -4556.45707        45.70007  23919803.76425   5510984.08825     -3404.16225        33.70025
C25  22342855.86307   7469082.70407     -4805.67807        45.40007  22342863.35826   5636784.24826     -3622.56226        35.50026
C32  23827432.91107   6838975.67207     -1776.09707        43.50007  23827440.70626   5702329.30426     -1338.25726        37.90026
E05  21802252.11507   7138380.48607     -3227.17507        43.50007  21802263.50725   5338629.62825     -2407.85625        31.60025
C07  38411031.89607     27239.85107     -3433.90507        42.90007                                                                
E16  23287719.24707  10715563.92407     -3214.55907        43.00007  23287730.34025   8009909.78025     -2400.79025        34.40025
C23  22772144.57217    122023.56717     -2634.03417        43.90017  22772146.67126   4856892.52026     -1987.84926        35.90026
R09  21669186.53427-116094247.26127     -1557.25627        43.60027
C10  38020064.75706   6191064.35506     -3137.78106        41.30006                                                                
E25  24141325.80806    511613.73806     -2025.84906        39.20006  24141336.60025   8121791.38225     -1511.04925        34.90025
C34  25055243.11624   3735387.33924     -1922.28624        29.20024                                                                
C37  26390285.48626    455744.71426     -1268.97826        38.60026  26390304.97217   7915324.65717      -956.03417        41.80017
E03  25788748.92116   7312503.63416     -1143.01416        40.00016  25788759.71306   5468166.53306      -854.97106        36.20006
E09  25535354.44206  11353887.33306     -5579.20606        37.50006  25535362.23724   8486229.58924     -4171.59424        26.50024
R06  19737594.94705-105705319.46805     -2216.37705        33.90005
R15  22421714.47016-120197112.18616     -6603.66016        36.10016
R05  20723283.46915-111160228.68215     -6989.83315        32.00015
R07  23005055.43226-123530802.25426       463.21726        36.40026
E31  27200381.96724  11269567.96124     -6114.58124        23.60024                                                                
> 2024 12 29 08 50 47.9999999  0 29                      
G30  21414232.23607   -194232.93607     -4424.85007        46.30007  21414245.12706   4566366.16206     -3304.20106        40.10006
G14  20242553.07207    -96788.04507     -4214.79707        46.60007  20242565.66306    -68592.00606     -3147.29506        39.00006
G13  20892900.04607   5925760.44507     -1403.59007        45.00007                                                                
G05  22722377.52516    -60015.25416     -4967.23916        41.10016                                                                
G15  23278290.47527   7174018.40827      -163.36227        42.10027                                                                
G20  23425105.73726  10854281.76226     -6120.71126        37.10026                                                                
G19  24081212.32426  10755950.95526      -201.30026        36.90026                                                                
G17  22103869.41025    311205.79925     -1072.66725        33.50025                                                                
G07  23527060.95524  11542309.57424     -5244.98224        25.50024                                                                
R16  19893275.97208-106652126.15108     -4523.54408        47.80008
C25  22343090.90007   7464273.31207     -4813.07607        46.30007  22343098.39525   5633158.73725     -3628.75425        35.30025
E24  23919970.14907   7364400.98907     -4564.22007        45.90007  23919983.04025   5507577.37825     -3409.99825        33.40025
C32  23827089.04917   6837195.66117     -1783.63117        43.60017  23827094.14626   5700987.31526     -1345.08226        37.70026
E05  21802177.46707   7135149.63207     -3234.60607        43.50007  21802188.55925   5336215.98525     -2417.01325        33.70025
C07  38411002.51607     23802.36807     -3441.18107        43.20007                                                                
C23  22771964.39707    119386.47607     -2640.47507        43.80007  22771965.29626   4854902.41626     -1994.51426        35.60026
E16  23287644.59907  10712345.91207     -3221.65507        43.00007  23287652.99316   8007506.74816     -2405.71016        35.80016
R09  21668783.01417-116095773.08617     -1565.38217        43.40017
C10  38019981.11506   6187922.03206     -3146.25206        41.30006                                                                
E25  24141024.51616    509585.64616     -2031.88616        39.30016  24141035.60925   8120271.13325     -1525.57525        34.50025
E03  25788284.54206   7311354.83906     -1152.71506        39.80006  25788289.33906   5467308.71006      -860.67706        37.70006
R05  20723899.24306-111167204.97306     -6995.65206        37.40006
C37  26389838.19526    454473.74926     -1274.14326        38.70026  26389859.78007   7914367.56507      -959.59907        43.90007
E09  25535721.98806  11348305.00706     -5585.81606        37.60006  25535736.07824   8482054.12324     -4179.57024        26.30024
C34  25054919.94026   3733464.93326     -1925.45926        36.00026                                                                
R15  22422250.19906-120203657.85506     -6609.85306        35.80006
R06  19737331.73005-105707593.22905     -2225.00905        33.90005
R07  23004308.94826-123530495.88026       452.60426        35.50026
E31  27200871.22924  11263448.04324     -6124.14824        23.70024                                                                
> 2024 12 29 08 50 49.0000000  0 29                      
G30  21414446.28707   -198656.34707     -4424.59407        46.60007  21414457.97906   4563063.12306     -3303.85606        39.90006
G14  20242728.15107   -101002.31407     -4215.11807        46.40007  20242738.94306    -71738.67506     -3147.72506        38.50006
G13  20892536.99807   5924358.37207     -1403.22407        45.30007                                                                
G05  22722694.70606    -64981.81706     -4967.86206        41.20006                                                                
G15  23277699.58427   7173853.86427      -166.81027        41.90027                                                                
G20  23425650.46026  10848161.70826     -6121.40726        36.90026                                                                
G19  24080619.03426  10755750.42826      -201.68426        36.60026                                                                
G17  22103445.50325    310141.48725     -1062.88425        34.30025                                                                
G07  23527422.20524  11537063.95824     -5247.07024        25.40024                                                                
R16  19893496.61908-106656665.47208     -4523.05708        48.00008
C25  22343385.59607   7459461.66707     -4812.76007        46.90007  22343392.49115   5629532.64415     -3626.37715        35.40015
E24  23920217.17807   7359838.14207     -4564.07207        45.90007  23920221.97525   5504170.40625     -3407.09625        33.30025
C23  22771836.38607    116747.55707     -2639.82607        43.70007  22771843.28115   4852913.45315     -1988.38815        35.20015
C07  38411033.69507     20362.52207     -3441.02107        43.50007                                                                
E05  21802154.68207   7131916.09607     -3234.87007        43.50007  21802175.06815   5333801.63315     -2414.70115        33.30015
C32  23826794.05407   6835412.79407     -1784.29207        43.60007  23826808.14416   5699643.64816     -1344.50316        37.50016
E16  23287625.71207  10709125.17907     -3222.08707        42.90007  23287636.80506   8005101.82606     -2405.86306        35.80006
R09  21668439.45207-116097298.14307     -1563.27007        43.20007
C10  38019955.63206   6184776.80006     -3146.68106        41.40006                                                                
R05  20724581.57126-111174216.43926     -6994.72926        39.70026
E25  24140775.08906    507553.95206     -2033.24006        39.40006  24140791.57825   8118755.78325     -1512.89725        34.30025
C37  26389454.76116    453201.91816     -1272.26316        39.20016  26389474.54707   7913409.09207      -959.16207        43.80007
E03  25787860.93506   7310203.24206     -1152.99506        39.70006  25787879.52206   5466449.33406      -860.15006        37.40006
E09  25536153.38906  11342719.76206     -5586.69206        37.70006  25536169.27824   8477875.33824     -4180.43724        26.20024
C34  25054653.72426   3731539.61826     -1926.76526        35.90026                                                                
R15  22422867.77226-120210321.27026     -6611.35826        35.50026
R06  19737106.28605-105709747.88105     -2225.34405        33.80005
R07  23003570.55925-123529912.23425       455.15325        34.80025
E31  27201421.94724  11257323.95024     -6126.16824        23.80024                                                                
